"","NAME","DESCRIPTION","ADDRESS","CITY","ZIP.CODE","PHONE","LONGITUDE","LATITUDE","BUSINESS_ID","GRADE"
"1","#807 TUTTA BELLA","Seating 0-12 - Risk Category III","2746 NE 45TH ST","SEATTLE","98105","(206) 722-6400",-122.29641473,47.66231092,"PR0089260",1
"5","+MAS CAFE","Seating 0-12 - Risk Category III","1906 N 34TH ST ","SEATTLE","98103","(206) 491-4694",-122.3345870767,47.6481803613,"PR0046367",2
"13","?al?al Cafe","Seating 13-50 - Risk Category III","122 2ND AVE S","SEATTLE","98104","(952) 649-8629",-122.33134,47.60141,"PR0090156",NA
"14","100 LB CLAM","Seating 0-12 - Risk Category III","1001 FAIRVIEW AVE N Unit 1700A","SEATTLE","98109","(206) 369-2978",-122.33172694,47.62902129,"PR0085848",2
"29","1000 SPIRITS","Seating 51-150 - Risk Category III","1225 1ST AVE","SEATTLE","98101","(206) 612-2660",-122.33822298,47.60653938,"PR0082813",1
"160","125TH ST GRILL","Seating 51-150 - Risk Category III","12255 AURORA AVE N ","Seattle","98133","(206) 363-8950",-122.3453076813,47.7193154511,"PR0010573",1
"195","13 COINS","Seating 51-150 - Risk Category III","18000 PACIFIC HWY S ","SEATTLE","98188","(206) 243-9500",-122.2957679697,47.4415898055,"PR0004264",1
"285","13 COINS RESTAURANT","Seating 151-250 - Risk Category III","255 S KING ST","SEATTLE","98104","(206) 382-1313",-122.3310251,47.59788682,"PR0087276",1
"296","14 CARROT CAFE","Seating 51-150 - Risk Category III","2305 EASTLAKE AVE E ","SEATTLE","98102","(206) 324-1442",-122.3261014499,47.6398598066,"PR0003061",1
"357","1899 GROVE @ WOODLAND PARK ZOO","Seating 0-12 - Risk Category III","5500 PHINNEY AVE N","SEATTLE","98103","(206) 545-2042",-122.35094691,47.66842021,"PR0089019",1
"358","19 GOLD","Seating 13-50 - Risk Category III","3601 FREMONT AVE N STE 101","SEATTLE","98103","(206) 883-6870",-122.35031342,47.65169662,"PR0088266",1
"366","1ST UNION STORE","Grocery Store-no seating - Risk Category I","7729 RAINIER AVE S","SEATTLE","98118","(206) 721-1980",-122.2703260457,47.532773334,"PR0078086",NA
"368","2 FINGERS  SOCIAL","Seating 13-50 - Risk Category III","9211 DELRIDGE WAY SW","SEATTLE","98106","(702) 302-7083",-122.35831426,47.52059619,"PR0087100",1
"397","20 OZ TEA","Seating 13-50 - Risk Category III","1823 EASTLAKE AVE E 160","SEATTLE","98102","(206) 355-1491",-122.32591059,47.63568728,"PR0087143",1
"408","203 DEGREES FAHRENHEIT CORP","Seating 13-50 - Risk Category II","610 TERRY AVE N STE 170","SEATTLE","98109","(206) 227-4293",-122.33683306,47.62529931,"PR0090075",1
"409","206 BURGER","Seating 13-50 - Risk Category III","1329 N 45TH ST STE 109","SEATTLE","98103","(206) 805-9222",-122.34093,47.6612,"PR0087881",1
"410","206 BURGER COMPANY","Seating 13-50 - Risk Category III","101 NICKERSON ST STE A","SEATTLE","98109","(206) 661-2320",-122.3552638709,47.6483705082,"PR0077121",1
"411","206 BURGER COMPANY","Seating 13-50 - Risk Category III","1000 MADISON ST","SEATTLE","98104","(206) 735-7069",-122.3261480986,47.6090551634,"PR0033707",1
"420","206 MINI MART LLC","Grocery Store-no seating - Risk Category I","8738 RAINIER AVE S ","SEATTLE","98118","(206) 334-3876",-122.2697464571,47.5241785016,"PR0076125",NA
"442","2120","Seating 51-150 - Risk Category III","2120 6TH AVE","SEATTLE","98121","(206) 829-8700",-122.34014335,47.61577714,"PR0086799",1
"512","23RD & CHERRY FELLOWSHIP HALL","Seating 13-50 - Risk Category III","2701 E CHERRY ST ","SEATTLE","98122","(206) 325-4388",-122.297552399,47.6077428096,"PR0069504",1
"531","24/7 CONVENIENCE STORE","Grocery Store-no seating - Risk Category I","11851 GLENDALE WAY S","SEATTLE","98168","(206) 841-6123",-122.31118,47.496095,"PR0082552",NA
"536","2C THAIBISTRO & SPIRITS","Seating 13-50 - Risk Category III","12506 LAKE CITY WAY NE","SEATTLE","98125","(425) 786-7169",-122.29474176,47.71955074,"PR0084895",1
"552","2ND AVE GROCERY","Grocery Store-no seating - Risk Category I","2237 2ND AVE ","SEATTLE","98121","(206) 306-5773",-122.3456321143,47.6137836656,"PR0071985",NA
"555","3 BROS PIZZA CO","Caterer - Risk Category II","5604 DELRIDGE WAY SW","SEATTLE","98106","(509) 881-5675",-122.36272383,47.55166955,"PR0090517",NA
"556","314 PIE","Mobile Food Unit - Risk Category III","801 26TH AVE E","SEATTLE","98112","(512) 304-3590",-122.36272184,47.55167133,"PR0082603",NA
"568","3RD AVE CAFE","Seating 13-50 - Risk Category III","1908 3RD AVE ","Seattle","98101","(206) 622-7778",-122.3399331044,47.6120226711,"PR0002550",1
"638","411 WINE LOUNGE- GRAMERCY","Seating 13-50 - Risk Category II","411 1ST AVE S 104","SEATTLE","98104","(206) 553-9003",-122.334597936,47.5986010403,"PR0026367",1
"640","45 STOP-N-GO & SUSHI DELI","Seating 0-12 - Risk Category III","2323 N 45TH ST ","SEATTLE","98103","(206) 678-2270",-122.330453209,47.661259264,"PR0012005",1
"658","45TH POKE BAR","Seating 13-50 - Risk Category II","2121 TERRY AVE #104","SEATTLE","98121","(206) 678-2270",-122.3375087074,47.6182713133,"PR0076305",2
"664","45TH VEGETARIAN THAI","Seating 13-50 - Risk Category III","1718 N 45TH ST","Seattle","98103","(206) 483-7743",-122.3366551817,47.6615246383,"PR0001414",1
"665","4649 RESTAURANT","Seating 13-50 - Risk Category III","1913 N 45TH ST ","Seattle","98103","(206) 547-4649",-122.3344350279,47.6612037129,"PR0057270",1
"694","4B'S TAVERN","Seating 51-150 - Risk Category III","4300 LEARY WAY NW ","Seattle","98107","(425) 442-1329",-122.3645210571,47.6591105954,"PR0001294",1
"695","5 GUYS SEATTLE BURGERS","Seating 13-50 - Risk Category III","311 NE 103rd ST","SEATTLE","98125","(801) 859-4448",-122.3242337,47.70292236,"PR0079651",1
"724","5 SPOT DINER DELUX","Seating 51-150 - Risk Category III","1502 QUEEN ANNE AVE N ","Seattle","98109","(206) 250-5143",-122.356723964,47.6325265677,"PR0023299",1
"730","505 DIMPLES GIFT & SUNDRIES","Grocery Store-no seating - Risk Category I","505 5TH AVE S 190","SEATTLE","98104","(206) 643-0421",-122.3279141608,47.5982991051,"PR0068164",NA
"796","56TH STREET MARKET","Grocery Store-no seating - Risk Category I","2201 N 56TH ST ","SEATTLE","98103","(206) 402-3699",-122.3324480219,47.6685054875,"PR0076345",NA
"808","65th ST CAFE & RESTAURANT","Seating 13-50 - Risk Category III","301 NE 65TH ST","SEATTLE","98115","(206) 522-5585",-122.325304,47.675805,"PR0083321",1
"813","663 BISTRO","Seating 51-150 - Risk Category III","663 S WELLER ST ","SEATTLE","98104","(206) 349-2544",-122.3244913451,47.5973779763,"PR0048541",2
"817","7 - ELEVEN #37134A","Seating 0-12 - Risk Category III","5700 M L KING JR WAY S","SEATTLE","98118","(206) 725-8421",-122.287323,47.550965,"PR0084372",1
"837","7 - ELEVEN #38365A","Seating 0-12 - Risk Category III","4710 UNIVERSITY WAY NE","SEATTLE","98105","(206) 409-5327",-122.31276326,47.66350241,"PR0083074",1
"899","7- ELEVEN #23931F","Seating 0-12 - Risk Category III","11657 DES MOINES MEMORIAL DR S ","SEATTLE","98168","",-122.3087670109,47.4981739249,"PR0004275",1
"912","7-ELEVEN #14368P","Seating 0-12 - Risk Category III","1607 QUEEN ANNE AVE N ","SEATTLE","98109","(972) 828-6928",-122.3573732534,47.6338933536,"PR0011776",1
"913","7-ELEVEN #14470B","Seating 0-12 - Risk Category III","1600 SW HOLDEN ST ","Seattle","98106","(206) 763-1415",-122.3554136473,47.5340090578,"PR0002250",1
"921","7-ELEVEN #15525E","Seating 0-12 - Risk Category III","3120 S 176TH ST","SEATTLE","98188","(972) 828-6928",-122.2921186302,47.445687087,"PR0004268",1
"922","7-ELEVEN #16022G","Seating 0-12 - Risk Category III","5900 PHINNEY AVE N ","Seattle","98103","(206) 789-4477",-122.354018323,47.6719672037,"PR0001019",1
"923","7-ELEVEN #16365L","Seating 0-12 - Risk Category III","6111 24TH AVE NW ","SEATTLE","98107","",-122.3879876496,47.673604739,"PR0001027",1
"928","7-ELEVEN #16545G","Seating 0-12 - Risk Category III","103 15TH AVE E ","Seattle","98112","(972) 828-6928",-122.3130112368,47.6186773348,"PR0011526",2
"933","7-ELEVEN #16547P","Seating 0-12 - Risk Category III","4812 ERSKINE WAY SW ","SEATTLE","98116","(253) 796-7151",-122.3871279733,47.5588039469,"PR0002233",1
"936","7-ELEVEN #17486N","Seating 0-12 - Risk Category III","12702 RENTON AVE S ","Seattle","98178","(972) 828-6865",-122.2379240326,47.4901239508,"PR0005117",1
"937","7-ELEVEN #18553H","Seating 0-12 - Risk Category III","3931 STONE WAY N","Seattle","98103","(206) 632-3546",-122.3429274107,47.6551035359,"PR0001037",NA
"938","7-ELEVEN #19042G","Seating 0-12 - Risk Category III","7314 AURORA AVE N ","Seattle","98103","(206) 522-7066",-122.3441041651,47.6826132821,"PR0008294",2
"945","7-ELEVEN #21776D","Seating 0-12 - Risk Category III","21454 PACIFIC HWY S ","Seattle","98198","(850) 577-6957",-122.2977310427,47.4085153638,"PR0004278",2
"955","7-ELEVEN #23020J","Seating 0-12 - Risk Category III","1522 E MADISON ST ","Seattle","98122","",-122.3119680733,47.6150841664,"PR0002245",1
"1020","7-ELEVEN #23895D","Seating 0-12 - Risk Category III","12355 15TH AVE NE ","Seattle","98125","(206) 363-9454",-122.313088745,47.719167956,"PR0011694",2
"1058","7-ELEVEN #26939D","Seating 0-12 - Risk Category III","2429 HARBOR AVE SW ","SEATTLE","98126","(850) 577-6957",-122.3734129133,47.5813771296,"PR0013963",3
"1086","7-ELEVEN #27742B","Seating 0-12 - Risk Category III","20008 PACIFIC HWY S ","SEATTLE","98198","(972) 828-6928",-122.2958737571,47.4223933166,"PR0013425",2
"1088","7-ELEVEN #32945H","Seating 0-12 - Risk Category III","999 NW LEARY WAY ","SEATTLE","98107","(972) 828-6927",-122.3704303179,47.6631556438,"PR0067270",1
"1173","7-ELEVEN #35532B","Seating 0-12 - Risk Category III","819 VIRGINIA ST UNIT C-1","SEATTLE","98101","(206) 623-0413",-122.3358385,47.61602863,"PR0082120",3
"1198","7-ELEVEN #35541B","Seating 0-12 - Risk Category III","627 1ST AVE","SEATTLE","98104","(206) 467-5979",-122.33446393,47.60251526,"PR0082979",2
"1248","7-ELEVEN #37068A","Seating 0-12 - Risk Category III","810 3RD AVE STE 820","SEATTLE","98104","(206) 682-2866",-122.33274881,47.6046984,"PR0084072",1
"1276","7-ELEVEN #37755A","Seating 0-12 - Risk Category III","1105 NE 47th ST","SEATTLE","98105","(972) 828-7656",-122.31612382,47.66298557,"PR0086309",1
"1356","7-ELEVEN #41883A","Seating 0-12 - Risk Category III","1830 MINOR AVE","SEATTLE","98101","(972) 828-6928",-122.3308116303,47.6172086272,"PR0053506",2
"1383","7-ELEVEN 14436E","Seating 0-12 - Risk Category III","4312 SW ADMIRAL WAY SW ","Seattle","98116","(425) 271-5030",-122.3867406432,47.5813575574,"PR0002237",2
"1513","7-ELEVEN STORE #23525F","Seating 0-12 - Risk Category III","12848 M L KING JR WAY S ","SEATTLE","98178","(206) 772-3112",-122.2580865081,47.4877808891,"PR0005110",1
"1531","7-ELEVEN STORE #2360-14355G","Seating 0-12 - Risk Category III","9126 ROOSEVELT WAY NE ","Seattle","98115","(206) 522-6231",-122.3170805889,47.6957472793,"PR0001011",2
"1591","7-ELEVEN STORE #2360-14360A","Seating 0-12 - Risk Category III","3200 NW 54TH ST ","Seattle","98107","(253) 796-7155",-122.3986795916,47.6677206722,"PR0001013",1
"1643","7-ELEVEN STORE #2360-14373C","Seating 0-12 - Risk Category III","8250 LAKE CITY WAY NE ","SEATTLE","98115","(206) 522-2711",-122.3097150192,47.6889474844,"PR0001012",2
"1671","7-ELEVEN STORE #2360-14392B","Seating 0-12 - Risk Category III","9 NICKERSON ST ","Seattle","98109","(253) 796-7155",-122.3573274102,47.6491866294,"PR0002252",1
"2015","7-ELEVEN STORE #2360-23109D","Seating 0-12 - Risk Category III","362 DENNY WAY ","Seattle","98109","(425) 397-7143",-122.3492997029,47.6187523458,"PR0002246",1
"2039","7-ELEVEN STORE #2360-25525D","Seating 0-12 - Risk Category III","1550 NW MARKET ST","SEATTLE","98107","",-122.3785918617,47.6689446959,"PR0011211",1
"2098","7-ELEVEN STORE #2360-26055B","Seating 0-12 - Risk Category III","300 N 125TH ST ","Seattle","98133","(253) 796-7155",-122.3550762628,47.7199269081,"PR0011439",1
"2158","7-ELEVEN STORE #2360-26544C","Seating 0-12 - Risk Category III","304 N 36TH ST ","Seattle","98103","(253) 796-7155",-122.3552133262,47.6527899515,"PR0014190",1
"2204","7-ELEVEN STORE #2361-14443D","Seating 0-12 - Risk Category III","14462 34TH AVE S ","Seattle","98168","(253) 796-7155",-122.2892321974,47.4726953229,"PR0004267",1
"2255","7-ELEVEN STORE #2361-14463E","Seating 0-12 - Risk Category III","9041 DELRIDGE WAY SW","Seattle","98106","(253) 796-7155",-122.359688364,47.5217700784,"PR0002249",1
"2374","7-ELEVEN STORE #2361-22866C","Seating 0-12 - Risk Category III","14207 PACIFIC HWY S ","SEATTLE","98168","(253) 796-7155",-122.2838996762,47.475890596,"PR0004279",1
"2554","7-ELEVEN STORE #2361-24404B","Seating 0-12 - Risk Category III","3801 CALIFORNIA AVE SW ","Seattle","98116","(253) 796-7155",-122.3871664132,47.5699586859,"PR0002242",1
"2649","7-ELEVEN STORE #24497J","Seating 0-12 - Risk Category III","2009 RAINIER AVE S ","Seattle","98144","(850) 577-6957",-122.3040144096,47.585210303,"PR0002240",1
"2656","7-ELEVEN STORE #27901G","Seating 0-12 - Risk Category III","2100 N NORTHGATE WAY ","Seattle","98133","(206) 351-1936",-122.3334961928,47.709022328,"PR0016518",1
"2723","7-ELEVEN STORE -2361 26818F","Seating 0-12 - Risk Category III","19023 PACIFIC HWY S ","Seattle","98188","(253) 796-7155",-122.2956293304,47.4325376974,"PR0017475",1
"2979","74TH ST ALE HOUSE","Seating 13-50 - Risk Category III","7401 GREENWOOD AVE N ","Seattle","98103","(206) 228-7908",-122.3556185508,47.6826846077,"PR0012518",1
"3027","757 MINI MART","Grocery Store-no seating - Risk Category I","14257 DES MOINES MEMORIAL DR S ","Seattle","98168","(206) 242-9431",-122.315780895,47.4743730263,"PR0005059",NA
"3044","76 FOOD #284","Seating 0-12 - Risk Category III","12807 DES MOINES MEMORIAL DR S ","Seattle","98168","(206) 650-5442",-122.3122505786,47.4882934166,"PR0012277",1
"3063","76 GAS STATION","Seating 0-12 - Risk Category I","6600 M L KING JR WAY S ","SEATTLE","98118","",-122.2836678222,47.5429415787,"PR0012526",1
"3217","8 OZ BURGER BAR","Seating 51-150 - Risk Category III","1401 BROADWAY","SEATTLE","98122","(206) 819-0776",-122.321069774,47.6131603112,"PR0081817",2
"3287","84 YESLER","Seating 13-50 - Risk Category III","84 YESLER WAY","SEATTLE","98104","(206) 618-7739",-122.33508465,47.60186637,"PR0087979",1
"3334","8OZ BURGER & CO","Seating 51-150 - Risk Category III","2409 NW MARKET ST ","SEATTLE","98107","(206) 819-0705",-122.3881669378,47.668442488,"PR0070948",1
"3363","8TH MARKET GAS","Grocery Store-no seating - Risk Category I","719 NW MARKET ST","Seattle","98107","(206) 910-4120",-122.3656192052,47.6684168392,"PR0012712",NA
"3364","9 HATS WINERY","Seating 51-150 - Risk Category III","3861 1ST AVE S STE C","SEATTLE","98134","(206) 366-0335",-122.33486445,47.56800459,"PR0086901",2
"3660","9TH AND HENNEPIN DONUTS KC#965","Mobile Food Unit - Risk Category III","5600 DELRIDGE WAY SW","SEATTLE","98106","(206) 459-5012",-122.3627,47.55177,"PR0090704",NA
"3661","9TH AND PIKE","Seating 13-50 - Risk Category III","17801 INTERNATIONAL BL C","SEATTLE","98158","(503) 256-2222",-122.302146,47.443015,"PR0090288",NA
"3662","A & B CAFE","Seating 13-50 - Risk Category III","670 S WELLER ST ","SEATTLE","98104","(206) 625-0408",-122.3240987387,47.5976365562,"PR0027524",1
"3740","A COMMON CAKE BOND","Seating 0-12 - Risk Category III","2207 NE 65TH ST","SEATTLE","98115","(206) 550-3711",-122.304025124,47.6756724899,"PR0079430",NA
"3742","A LA MODE PIES","Seating 0-12 - Risk Category II","5821 PHINNEY AVE N","SEATTLE","98103","(206) 383-3796",-122.35467138,47.67170486,"PR0081545",2
"3773","A LA MODE PIES BALLARD","Seating 13-50 - Risk Category II","2034 NW 56TH ST #150","SEATTLE","98107","(206) 456-4343",-122.383687,47.669679,"PR0083557",1
"3775","A LA MODE PIES LLC","Seating 13-50 - Risk Category III","4225 SW ALASKA ST","SEATTLE","98116","(206) 456-4343",-122.38630309,47.56092599,"PR0086230",1
"3790","A PIZZA MART","Seating 51-150 - Risk Category III","1823 TERRY AVE #102","SEATTLE","98101","(206) 697-8011",-122.33341979,47.61589083,"PR0081936",2
"3800","A PIZZA MART","Seating 13-50 - Risk Category III","1433 11TH AVE","SEATTLE","98122","(206) 538-0407",-122.31842501,47.6136936,"PR0087727",2
"3801","A PIZZA MART","Seating 13-50 - Risk Category III","800 SENECA ST 103","SEATTLE","98101","(206) 517-4000",-122.32972116,47.6097667,"PR0086521",1
"3803","A PIZZA MART","Seating 13-50 - Risk Category III","2525 6TH AVE","SEATTLE","98121","(206) 322-4323",-122.34534865,47.61828716,"PR0085756",1
"3897","A PIZZA MART BAR & GRILL INC","Seating 51-150 - Risk Category III","5240 UNIVERSITY WAY NE STE D","SEATTLE","98105","(206) 697-5011",-122.31267798,47.66761667,"PR0083173",1
"3962","A PLUS HONG KONG KITCHEN","Seating 13-50 - Risk Category III","669 S KING ST STE 103","SEATTLE","98104","(425) 220-9333",-122.32417,47.59822,"PR0089348",2
"3975","A PLUS KITCHEN INC","Seating 13-50 - Risk Category III","419 6TH AVE S ","SEATTLE","98104","(206) 859-1874",-122.3265255873,47.5985422649,"PR0077592",2
"4011","A'AMORE EVENTS & ENT. LLC DBA INKEDIBLE IMAGES","Caterer - Risk Category I","520 S MASSACHUSETTS ST","SEATTLE","98134","(425) 427-8964",-122.32696335,47.5884911,"PR0090475",NA
"4012","A-CHAU CAFE LLC","Seating 13-50 - Risk Category II","6902 RAINIER AVE S","SEATTLE","98118","(206) 369-8126",-122.2711872177,47.540564649,"PR0069317",1
"4013","A-PIZZA MART","Seating 0-12 - Risk Category III","9452 35TH AVE SW ","Seattle","98126","(206) 932-5350",-122.3763195441,47.517727118,"PR0029367",1
"4082","A1 MARKET","Seating 13-50 - Risk Category III","14401 GREENWOOD AVE N","SEATTLE","98133","(206) 679-0369",-122.35598551,47.7333351,"PR0085860",1
"4098","A1 MART, INC","Seating 13-50 - Risk Category III","10406 GREENWOOD AVE N","SEATTLE","98133","(206) 407-6732",-122.3549588079,47.7046009374,"PR0067500",1
"4261","ABARROTES EL OAXAQUENO","Grocery Store-no seating - Risk Category I","4515 15TH AVE S","SEATTLE","98108","(206) 954-2229",-122.31388154,47.56303484,"PR0082013",NA
"4273","ABARROTES RAMIREZ","Grocery Store-no seating - Risk Category I","3218 RAINIER AVE S ","SEATTLE","98144","(206) 683-1013",-122.2946149144,47.5745007576,"PR0069921",NA
"4280","ABAY RESTAURANT & CAFE","Seating 51-150 - Risk Category III","14857 International BL S","Seattle","98168","(206) 471-4220",-122.2866588674,47.4701198061,"PR0011058",1
"4281","ABBOUD'S MCDONALD'S, LLC","Seating 51-150 - Risk Category III","6546 CALIFORNIA AVE SW","Seattle","98136","(206) 762-9445",-122.3868457608,47.5433052494,"PR0003302",1
"4325","ABBOUD'S MCDONALDS, LLC","Seating 13-50 - Risk Category III","3003 CALIFORNIA AVE SW ","Seattle","98116","(206) 767-5258",-122.387121862,47.5767089847,"PR0044982",1
"4402","ABURIYA BENTO HOUSE","Seating 13-50 - Risk Category III","2100 WESTERN AVE B","SEATTLE","98121","(206) 453-4685",-122.34478292,47.61130615,"PR0080364",1
"4410","ABYSSINIA MARKET","Seating 0-12 - Risk Category II","2225 4TH AVE ","Seattle","98121","(206) 770-9410",-122.3440676667,47.615079327,"PR0003899",1
"4669","ACCITUNO'S #12","Seating 13-50 - Risk Category III","13055 LAKE CITY WAY NE ","SEATTLE","98125","(206) 861-2008",-122.293080219,47.7245314316,"PR0046917",1
"4790","ADA'S RESTAURANT & BAR","Seating 13-50 - Risk Category III","5910 PHINNEY AVE N ","Seattle","98103","(206) 906-9554",-122.3542057885,47.6721711301,"PR0001429",1
"4794","ADA'S TECHNICAL BOOKS AND CAFE","Seating 51-150 - Risk Category III","425 15TH AVE E","SEATTLE","98112","(206) 941-4010",-122.31286237,47.62268345,"PR0083069",1
"4813","ADAMS ELEMENTARY SCHOOL","School Lunch Program - Risk II","6110 28TH AVE NW ","Seattle","98107","",-122.392119067,47.6734987391,"PR0001045",NA
"4847","ADDIS MANAGEMENT INC","Seating 0-12 - Risk Category III","11065 8TH AVE S ","Seattle","98168","(253) 796-7155",-122.3235607317,47.5032374689,"PR0004269",1
"4896","ADEY ABEBA ETHIOPIAN RESTAURANT","Seating 13-50 - Risk Category III","2123 E UNION ST ","SEATTLE","98122","",-122.3038409663,47.6127386315,"PR0070233",1
"4959","ADMIRAL CHEVRON","Seating 0-12 - Risk Category III","4100 SW ADMIRAL WAY","SEATTLE","98116","(206) 937-3654",-122.38418131,47.58146346,"PR0084512",1
"4960","ADMIRAL CHEVRON","Seating 0-12 - Risk Category III","2347 CALIFORNIA AVE SW ","Seattle","98116","",-122.3869173867,47.5814948042,"PR0032808",1
"5027","ADMIRAL CINEMA LLC","Seating 0-12 - Risk Category I","2343 CALIFORNIA AVE ","SEATTLE","98116","",-122.3867328999,47.5827069467,"PR0071437",1
"5042","ADMIRAL PUB","Seating 51-150 - Risk Category III","2306 CALIFORNIA AVE SW ","Seattle","98116","(206) 889-3945",-122.3862261638,47.582697064,"PR0003839",1
"5049","ADULIS ERITREAN & ETHIOPIAN RESTAURANT","Seating 51-150 - Risk Category III","10515 GREENWOOD AVE N","SEATTLE","98133","(206) 399-5160",-122.3558631252,47.7055827179,"PR0001638",1
"5067","AERLUME","Seating 151-250 - Risk Category III","2003 WESTERN AVE STE C","SEATTLE","98121","(206) 352-1450",-122.34481,47.61079,"PR0087984",1
"5111","AF OPERATIONS TRUCK #2 - UWA2","Mobile Food Unit - Risk Category I","13537 AURORA AVE N","SEATTLE","98133","(206) 740-8467",-122.17543863,47.62244479,"PR0085004",NA
"5169","AFC SUSHI (SAFEWAY #1550)","Seating 0-12 - Risk Category III","7300 ROOSEVELT WAY NE ","SEATTLE","98115","(206) 525-6348",-122.3170102326,47.6819919883,"PR0087651",1
"5176","AFC SUSHI (SAFEWAY #1551)","Seating 0-12 - Risk Category III","1410 E JOHN ST ","SEATTLE","98112","",-122.3131356749,47.6204942289,"PR0067105",1
"5251","AFC SUSHI @ AMAZON DOPPLER BUILDING","Seating 0-12 - Risk Category III","2021 7TH AVE","SEATTLE","98121","(310) 604-3200",-122.33840633,47.61534171,"PR0088082",1
"5252","AFC Sushi @ AMZ042","Seating 0-12 - Risk Category III","13201 AURORA AVE N","Seattle","98133","(310) 604-3200",-122.34699268,47.72558082,"PR0090233",1
"5256","AFC SUSHI @ BOEING #2","Seating 0-12 - Risk Category III","7755 E MARGINAL WAY","SEATTLE","98108","(310) 604-3200",-122.31174,47.53229,"PR0086463",1
"5614","AFC SUSHI @ METOPOLITAN MARKET #157","Seating 0-12 - Risk Category III","100 MERCER ST ","SEATTLE","98109","(310) 604-3200",-122.3544147995,47.6248335865,"PR0076652",1
"5657","AFC SUSHI @ METROPOLITAN #153","Seating 0-12 - Risk Category III","2320 42ND AVE SW ","SEATTLE","98116","",-122.3845548788,47.581905256,"PR0046980",1
"5709","AFC SUSHI @ METROPOLITAN 156","Seating 0-12 - Risk Category III","5250 40TH AVE NE ","SEATTLE","98105","(310) 604-3200",-122.2839495952,47.6681496981,"PR0069588",1
"5794","AFC SUSHI @ SAFEWAY  #2932","Seating 0-12 - Risk Category III","2622 CALIFORNIA AVE SW","SEATTLE","98116","(310) 604-3200",-122.385802636,47.5799024004,"PR0081520",1
"5835","AFC SUSHI @ SAFEWAY #1062","Seating 0-12 - Risk Category III","4754 42ND AVE SW","SEATTLE","98116","(206) 932-6026",-122.38485,47.55976,"PR0088687",1
"5840","AFC SUSHI @ SAFEWAY #1143","Seating 0-12 - Risk Category III","8340 15TH AVE NW","SEATTLE","98117","(310) 604-3200",-122.37640847,47.6900328,"PR0087861",1
"5874","AFC SUSHI @ SAFEWAY #1477","Seating 0-12 - Risk Category III","1423 NW MARKET ST","SEATTLE","98107","(310) 604-3200",-122.3741713,47.66822144,"PR0088160",2
"5879","AFC SUSHI @ SAFEWAY #1508","Seating 0-12 - Risk Category III","3820 RAINIER AVE S","SEATTLE","98118","(206) 725-9575",-122.28805618,47.56833229,"PR0088856",1
"5964","AFC SUSHI @ SAFEWAY #1885","Seating 0-12 - Risk Category III","516 1ST AVE W","SEATTLE","98119","(206) 494-1685",-122.35774894,47.62395194,"PR0090674",1
"5965","AFC SUSHI @ SAFEWAY #1923","Seating 0-12 - Risk Category III","9620 28TH AVE SW","SEATTLE","98126","(310) 604-3200",-122.36668833,47.51668087,"PR0084242",1
"6095","AFC SUSHI @ SAFEWAY #423","Seating 0-12 - Risk Category III","7340 35TH AVE NE","SEATTLE","98115","(206) 524-7064",-122.28940845,47.68263882,"PR0087824",3
"6113","AFC SUSHI @ SAFEWAY #488","Seating 0-12 - Risk Category III","3020 NE 45TH ST","SEATTLE","98105","(206) 522-8350",-122.29493497,47.66189057,"PR0087618",1
"6197","AFC SUSHI @ SEATTLE UNIVERSITY #1","Seating 0-12 - Risk Category III","1000 E JAMES WAY","SEATTLE","98122","(310) 604-3200",-122.31822041,47.60830469,"PR0088051",1
"6203","AFC SUSHI@ METROPOLITAN MARKET #161","Seating 0-12 - Risk Category III","3830 34TH AVE W","SEATTLE","98199","(310) 604-3200",-122.400591,47.654794,"PR0082750",1
"6219","AFC SUSHI@ SAFEWAY #1586","Seating 0-12 - Risk Category III","12318 15TH AVE NE","SEATTLE","98125","(310) 604-3200",-122.311913,47.717986,"PR0082021",1
"6261","AFRICA LOUNGE","Seating 51-150 - Risk Category III","SEA-TAC AIRPORT ConA","SEATTLE","98158","",-122.30228,47.44362,"PR0070070",1
"6323","AFRIK GROCERY","Grocery Store-no seating - Risk Category I","4610 MARTIN LUTHER KING JR WAY S","SEATTLE","98108","(206) 427-6427",-122.293542,47.561836,"PR0083937",NA
"6512","AGAVE COCINA & TEQUILAS","Seating 51-150 - Risk Category III","100 REPUBLICAN ST","SEATTLE","98109","(425) 269-5144",-122.35510754,47.62343156,"PR0083938",1
"6534","AGELGL ETHIOPIA","Seating 13-50 - Risk Category III","2800 E CHERRY ST ","Seattle","98122","",-122.295873165,47.6081764027,"PR0052102",1
"6566","AGLIO E OLIO","Seating 13-50 - Risk Category III","2743 E MADISON ST","SEATTLE","98112","(206) 622-7868",-122.29593245,47.62322936,"PR0085432",1
"6577","AGUA VERDE CAFE","Mobile Food Unit - Risk Category III","1303 NE BOAT ST","SEATTLE","98105","(206) 818-6937",-122.3144144273,47.6516131197,"PR0088993",NA
"6605","AHADU","Seating 13-50 - Risk Category III","1508 NE 117TH ST","SEATTLE","98125","(206) 367-3998",-122.31189716,47.7141502,"PR0081249",1
"6654","AIRBNB SEATTLE","Seating 0-12 - Risk Category III","720 OLIVE WAY","SEATTLE","98101","(847) 217-6729",-122.33485129,47.61418075,"PR0087360",1
"6671","AIRPORT 76","Seating 0-12 - Risk Category III","4603 S 188TH ST ","Seattle","98188","(253) 931-0554",-122.2758381359,47.4341094377,"PR0021124",1
"6862","AKI KUROSE","School Lunch Program - Risk II","3928 S GRAHAM ST ","Seattle","98118","",-122.2819803375,47.5463218344,"PR0024031",NA
"6901","AL BACHA","Seating 13-50 - Risk Category III","1833 BROADWAY","SEATTLE","98122","(425) 773-8689",-122.32109,47.6186,"PR0087162",3
"6923","AL'S GOURMET SAUSAGE #5","Mobile Food Unit - Risk Category II","170 KING ST ","SEATTLE","98104","",-122.3323348755,47.5984533304,"PR0066378",NA
"6962","AL'S GOURMET SAUSAGE DTEH - 034","Mobile Food Unit - Risk Category III","170 KING ST","SEATTLE","98104","(206) 551-2399",-122.3333,47.59389,"PR0078103",NA
"7037","AL'S TAVERN","Seating 13-50 - Risk Category II","2303 N 45TH ST ","Seattle","98103","(206) 545-9959",-122.3311401963,47.6611843419,"PR0001048",1
"7119","ALACART LLC / WOK","Seating 0-12 - Risk Category III","305 HARRISON ST","SEATTLE","98109","(206) 719-5549",-122.35358907,47.62136571,"PR0082432",1
"7137","ALADDIN CHAR BURGER","Seating 13-50 - Risk Category III","4135 UNIVERSITY WAY NE ","Seattle","98105","(206) 687-0041",-122.3135471524,47.6579623744,"PR0031822",3
"7142","ALADDIN FALAFEL CORNER","Seating 0-12 - Risk Category III","4541 UNIVERSITY WAY NE ","Seattle","98105","(206) 548-9539",-122.3134460899,47.6624405949,"PR0043224",2
"7235","ALADDIN GYRO RESTAURANT","Seating 13-50 - Risk Category III","4139 UNIVERSITY WAY NE ","Seattle","98105","(206) 632-5253",-122.3134685832,47.6580569871,"PR0032509",2
"7395","ALASKA AIRLINES BOARD ROOM","Seating 151-250 - Risk Category III","SEA-TAC AIRPORT ConD","Seattle","98158","(206) 392-5824",-122.30228,47.44362,"PR0015343",1
"7455","ALASKA WEATHERVANE SEAFOOD SCALLOP FOOD TRUCK (KC792)","Mobile Food Unit - Risk Category III","7912 7TH AVE S","SEATTLE","98108","(253) 732-8827",-122.32525,47.53155,"PR0088101",NA
"7462","ALAZAYEM RESTAURANT","Seating 51-150 - Risk Category III","6727 MARTIN LUTHER KING JR WAY S","SEATTLE","98118","(206) 487-9832",-122.2839903,47.5414844,"PR0084787",3
"7468","ALBASHA RESTAURANT","Seating 0-12 - Risk Category III","2302 1ST AVE","SEATTLE","98121","(206) 708-5585",-122.34662193,47.61363231,"PR0083314",1
"7480","ALBERONA'S DAVINCI PIZZA & PASTA","Seating 13-50 - Risk Category III","3624 LEARY WAY NW ","Seattle","98107","(206) 218-3780",-122.3596646022,47.654012074,"PR0001456",2
"7614","ALBERTSONS #3408","Bakery-no seating - Risk Category II","2550 32ND AVE W ","Seattle","98199","(208) 395-6022",-122.3978807181,47.6424608191,"PR0018562",NA
"7805","ALD SEA FOOD","Seating 0-12 - Risk Category III","17801 INTERNATIONAL BL","SEATTLE","98158","(866) 372-3035",-122.302015,47.44334,"PR0084673",1
"7823","ALEBRIJES KITCHEN","Seating 13-50 - Risk Category III","850 NW 85TH ST ","Seattle","98117","(206) 331-8279",-122.3674416578,47.6908824471,"PR0043673",1
"7824","ALEM RESTAURANT","Seating 13-50 - Risk Category III","4423 RAINIER AVE S","SEATTLE","98118","(206) 723-3587",-122.2883632448,47.563840045,"PR0067229",1
"7940","ALEXANDRAS MACARONS AND CAFE","Seating 13-50 - Risk Category III","1410 18TH AVE","SEATTLE","98122","(941) 685-9700",-122.3086935428,47.6132622358,"PR0076605",1
"7961","ALIBERTOS JR FRESH MEXICAN FOOD","Seating 51-150 - Risk Category III","2425 4TH AVE S ","SEATTLE","98134","(206) 890-3827",-122.3295727327,47.5810055135,"PR0002669",2
"7967","ALIBERTOS JR FRESH MEXICAN FOOD","Seating 13-50 - Risk Category III","14300 AURORA AVE N","SEATTLE","98133","(206) 890-3827",-122.34468947,47.73254971,"PR0090642",NA
"7968","ALIBI ROOM, THE","Seating 51-150 - Risk Category III","85 PIKE ST ","Seattle","98101","(206) 623-3180",-122.3408145681,47.6083275471,"PR0021122",1
"7999","ALJOYA THORNTON PLACE","Seating 51-150 - Risk Category III","450 NE 100TH ST","SEATTLE","98125","(206) 306-7920",-122.32364249,47.70160238,"PR0080717",2
"8044","ALKI BEACH CAFE","Seating 51-150 - Risk Category III","2726 ALKI AVE SW","SEATTLE","98116","(650) 867-9806",-122.4109004153,47.5788326459,"PR0010923",1
"8049","ALKI BEACH PUB","Seating 51-150 - Risk Category III","2722 ALKI AVE SW ","SEATTLE","98116","(425) 343-4753",-122.4109070681,47.5788760202,"PR0044182",1
"8062","ALKI CAFE @ SOUTH SEATTLE CULINARY ARTS BLDG","Seating 51-150 - Risk Category II","6000 16TH AVE SW","SEATTLE","98106","(206) 934-6242",-122.3529763,47.55104958,"PR0089955",NA
"8063","ALKI COMMUNITY CENTER","Non-Profit Institution - Risk Category III","5817 SW STEVENS ST","Seattle","98116","(206) 684-7430",-122.4069498165,47.5775862226,"PR0047859",NA
"8112","ALKI ELEMENTARY","School Lunch Program - Risk II","3010 59TH AVE SW","Seattle","98116","",-122.4078271254,47.5771417203,"PR0004200",NA
"8147","ALKI MAIL & DISPATCH, INC.","Seating 0-12 - Risk Category I","4701 SW ADMIRAL WAY ","SEATTLE","98116","(206) 932-2556",-122.3920758134,47.580872791,"PR0071075",1
"8168","ALKI MASONIC TEMPLE","Seating 51-150 - Risk Category III","4736 40TH AVE SW","Seattle","98116","(206) 938-3554",-122.3824041244,47.5600021535,"PR0043629",1
"8198","ALKI PHO & BAR","Seating 51-150 - Risk Category III","2808 ALKI AVE SW","SEATTLE","98116","(206) 453-4000",-122.4121973765,47.5784554696,"PR0002881",1
"8200","ALKI SPUD FISH & CHIPS","Seating 51-150 - Risk Category III","2666 ALKI AVE SW","SEATTLE","98116","(206) 938-0606",-122.4088102722,47.5794897267,"PR0002289",1
"8291","All City Coffee","Seating 0-12 - Risk Category I","1205 S VALE ST","SEATTLE","98108","(206) 767-7146",-122.3170427448,47.5490477251,"PR0066640",2
"8313","ALL STAR GROCERY","Grocery Store-no seating - Risk Category I","2825 S 200TH ST ","Seattle","98198","",-122.2971039167,47.4223931336,"PR0004618",NA
"8340","ALLEGRO ESPRESSO BAR","Seating 13-50 - Risk Category I","4214 UNIVERSITY WAY NE ","Seattle","98105","(206) 633-3030",-122.3128642726,47.6587769102,"PR0001063",1
"8362","ALLENTOWN SUPERETTE","Grocery Store-no seating - Risk Category I","12404 42ND AVE S","Seattle","98168","(206) 763-8242",-122.2798362334,47.4922241601,"PR0004315",NA
"8380","ALLEY FOOD AND BEVERAGE, LLC","Seating 51-150 - Risk Category III","900 POPLAR PL S STE F","SEATTLE","98144","(303) 906-4338",-122.31125455,47.59388251,"PR0085604",2
"8399","ALLEY KOREAN RESTAURANT","Seating 13-50 - Risk Category III","4129 UNIVERSITY WAY NE ","Seattle","98105","",-122.3134513305,47.6577028322,"PR0018451",2
"8409","ALMANQAL","Seating 13-50 - Risk Category III","1712 N 45TH ST","SEATTLE","98103","(832) 613-7298",-122.3370636765,47.6616290709,"PR0054661",1
"8489","ALOHA MARKET","Grocery Store-no seating - Risk Category I","7762 BEACON AVE S","SEATTLE","98118","(206) 201-4938",-122.28847008,47.53265788,"PR0017894",NA
"8490","ALOHA PLATES","Seating 0-12 - Risk Category III","600 5TH AVE S STE 511","SEATTLE","98104","(253) 282-0060",-122.3274321733,47.5974908372,"PR0068153",1
"8530","ALPHA CHI OMEGA","Seating 51-150 - Risk Category III","4545 17TH AVE NE ","Seattle","98105","(206) 525-9104",-122.3100219433,47.6625452899,"PR0001064",1
"8576","ALPHA DELTA PHI FRATERNITY","Seating 51-150 - Risk Category III","2106 NE 47TH ST","SEATTLE","98105","(206) 948-6097",-122.305068,47.663283,"PR0077549",1
"8610","ALPHA DELTA PI","Seating 151-250 - Risk Category III","1805 NE 47TH ST ","Seattle","98105","(206) 522-8137",-122.3081271056,47.6628701978,"PR0001066",1
"8656","ALPHA GAMMA DELTA","Seating 13-50 - Risk Category III","4510 21ST AVE NE ","Seattle","98105","(206) 527-2351",-122.3051092334,47.6616626223,"PR0001068",1
"8703","ALPHA PHI","Seating 13-50 - Risk Category III","4710 19TH AVE NE ","Seattle","98105","(916) 687-7700",-122.3068752935,47.6632945684,"PR0001070",1
"8761","ALPHA SIGMA PHI","Seating 51-150 - Risk Category III","4554 19TH AVE NE ","Seattle","98105","",-122.3068805299,47.662804353,"PR0001071",1
"8811","ALPHA XI DELTA","Seating 51-150 - Risk Category III","1616 NE 50TH ST ","SEATTLE","98105","(206) 522-2968",-122.3100929494,47.6650685977,"PR0001072",1
"8864","ALSTADT LLC","Seating 51-150 - Risk Category III","209 1ST AVE S STE A","SEATTLE","98104","(206) 683-3056",-122.33458063,47.60050345,"PR0083598",1
"8895","ALTURA","Seating 13-50 - Risk Category III","617 BROADWAY AVE E","SEATTLE","98102","(206) 417-4628",-122.321160151,47.6248978878,"PR0081662",1
"8918","ALUEL CELLARS","Seating 0-12 - Risk Category II","801 E THOMAS ST STE A","SEATTLE","98102","(425) 420-7335",-122.32199877,47.62093587,"PR0086307",1
"8919","ALUEL CELLARS","Seating 13-50 - Risk Category II","1528 NW MARKET ST","SEATTLE","98107","(425) 420-7335",-122.37789045,47.6689047,"PR0090385",1
"8978","AM PM MINI MART","Seating 0-12 - Risk Category III","14424 GREENWOOD AVE N ","Seattle","98133","(206) 361-8333",-122.3551452045,47.7338417851,"PR0001783",1
"9023","AM-PM MINI MART","Seating 0-12 - Risk Category III","10822 ROOSEVELT WAY NE ","Seattle","98125","",-122.3173330701,47.7082941159,"PR0001677",1
"9242","AMAZING THAI CUISINE","Seating 13-50 - Risk Category III","5210 ROOSEVELT WAY NE #B ","Seattle","98105","(206) 409-7654",-122.3170701077,47.6667911084,"PR0014115",2
"9295","AMAZON","Seating 51-150 - Risk Category III","300 PINE ST","SEATTLE","98101","(206) 549-4615",-122.33835,47.61116,"PR0087524",1
"9297","AMAZON","Seating 0-12 - Risk Category III","2205 7TH AVE","SEATTLE","98121","(808) 429-5007",-122.34068281,47.61672881,"PR0089302",1
"9324","AMAZON BLOCK 14 (THE MEETING CENTER) LEVEL G","Caterer - Risk Category III","2031 7TH AVE","SEATTLE","98121","(206) 445-4637",-122.33854211,47.61541131,"PR0087213",NA
"9335","AMAZON BLOCK 19","Seating 13-50 - Risk Category III","2101 7TH AVE","SEATTLE","98121","(734) 320-1846",-122.33923703,47.61579252,"PR0086336",1
"9342","AMAZON BLOCK 19 TOWER-ELM COFFEE SHOP","Seating 51-150 - Risk Category III","2121 7TH AVE","SEATTLE","98121","(704) 328-5090",-122.33951724,47.61598921,"PR0086136",1
"9350","AMAZON BLOCK 20 - LEVEL - Cold & Dry Storage/Market (Plan A)","Seating 0-12 - Risk Category I","2121 8TH AVE","SEATTLE","98121","(206) 266-0810",-122.33874,47.61629,"PR0088302",1
"9360","AMAZON BLOCK 21","Seating 151-250 - Risk Category III","2200 7TH AVE","SEATTLE","98121","(206) 266-0810",-122.34015,47.61697,"PR0088763",1
"9382","AMAZON FRESH- UWA4","Grocery Store-no seating - Risk Category I","2401 UTAH AVE S","SEATTLE","98134","(206) 740-8467",-122.3359182,47.58090105,"PR0085918",NA
"9386","AMAZON GO","Seating 0-12 - Risk Category III","1122 MADISON ST","SEATTLE","98104","(425) 301-9541",-122.32442655,47.60991393,"PR0088518",1
"9391","AMAZON RETAIL LLC","Grocery Store-no seating - Risk Category II","13201 AURORA AVE N STE B","SEATTLE","98133","(206) 413-4045",-122.34699268,47.72558082,"PR0089897",NA
"9396","AMAZON RETAIL LLC","Seating 0-12 - Risk Category II","610 E PIKE ST","SEATTLE","98122","",-122.32421,47.61428,"PR0088564",1
"9402","AMAZON RETAIL LLC - ISE1","Grocery Store-no seating - Risk Category I","2131 7TH AVE","SEATTLE","98121","(206) 765-3457",-122.33993046,47.61625482,"PR0086415",NA
"9415","AMAZON RETAIL LLC - MAB6","Grocery Store-no seating - Risk Category II","2309 S JACKSON ST","SEATTLE","98144","(206) 478-0844",-122.30164478,47.59881898,"PR0089091",NA
"9424","AMAZON RETAIL LLC - NESSIE","Seating 0-12 - Risk Category III","500 9th AVE N","SEATTLE","98109","(206) 740-8467",-122.33928614,47.62360207,"PR0086890",1
"9429","AMAZON RETAIL LLC-ISE6","Seating 0-12 - Risk Category III","300 BOREN AVE N","SEATTLE","98109","(206) 740-8467",-122.3351923,47.62120128,"PR0087511",1
"9432","AMAZON RETAIL LLC. - MAC8","Grocery Store-no seating - Risk Category II","951 NW Ballard WAY","Seattle","98107","",-122.37030945,47.66261327,"PR0089396",NA
"9433","AMAZON RETAIL, LLC","Seating 0-12 - Risk Category III","1906 TERRY AVE","SEATTLE","98101","(206) 740-8467",-122.33360167,47.616658,"PR0088806",1
"9435","AMAZON RETAIL, LLC","Seating 0-12 - Risk Category III","1423 4TH AVE","SEATTLE","98101","(425) 301-9541",-122.33659912,47.60966691,"PR0089298",NA
"9436","AMAZON RETAIL, LLC - ISE7","Seating 0-12 - Risk Category III","920 5TH AVE","SEATTLE","98104","(912) 659-3473",-122.33132214,47.60651159,"PR0087606",1
"9448","AMAZON-CAFE MOBY","Seating 0-12 - Risk Category III","202 WESTLAKE AVE N","SEATTLE","98109","(206) 266-0839",-122.338127,47.619992,"PR0083428",1
"9481","AMBROSIA","Seating 13-50 - Risk Category II","6951 M L KING JR WAY S STE 110","SEATTLE","98118","(206) 604-2578",-122.282935,47.539304,"PR0083603",2
"9606","AMC THEATRES OAKTREE 6","Seating 0-12 - Risk Category III","10006 AURORA AVE N ","Seattle","98133","(913) 213-2000",-122.3424882681,47.7018684437,"PR0012396",1
"9629","AMC THEATRES PACIFIC PLACE II","Seating 0-12 - Risk Category III","600 PINE ST ","SEATTLE","98101","",-122.3353130215,47.6128922539,"PR0052132",1
"9723","AMC THEATRES SEATTLE 10","Seating 13-50 - Risk Category III","4500 9TH AVE NE","Seattle","98105","(913) 213-2000",-122.3180742419,47.6617409644,"PR0019093",2
"9802","American Hotel-Hostelling Int'l","Grocery Store-no seating - Risk Category I","520 S King ST ","SEATTLE","98104","(206) 622-5443",-122.32672768,47.59848547,"PR0079761",NA
"9841","AMERICANA","Seating 51-150 - Risk Category III","219 BROADWAY AVE E","SEATTLE","98102","",-122.3211199818,47.620142678,"PR0026186",2
"9843","AMERICANO INC","Seating 13-50 - Risk Category III","2818 Thorndyke AVE W","SEATTLE","98199","(206) 336-5411",-122.382486,47.645216,"PR0079693",1
"9856","AmEx Centurion Studio @ Seattle Tacoma Airport","Seating 151-250 - Risk Category III","17801 International BL Term B","Seattle","98158","(704) 328-6604",-122.302146,47.443015,"PR0090254",1
"9857","AMMANA HOUSEWARE AND GROCERY, LLC","Meat/Sea Food - Risk Category III","5503 M L KING JR WAY S","SEATTLE","98118","(206) 422-3814",-122.288892643,47.5523005192,"PR0081678",NA
"9983","AMPERSAND CAFE - ALKI","Mobile Food Unit - Risk Category III","2536 ALKI AVE SW ","SEATTLE","98116","(206) 617-3097",-122.4068035827,47.5803730734,"PR0077246",NA
"10027","AN NAM PHO","Seating 13-50 - Risk Category III","6510 ROOSEVELT WAY NE","SEATTLE","98115","",-122.317036,47.67629,"PR0083352",2
"10049","ANALOG COFFEE","Seating 0-12 - Risk Category I","235 SUMMIT AVE E","SEATTLE","98102","(206) 661-4794",-122.32554946,47.62067134,"PR0081339",1
"10064","ANAR","Seating 13-50 - Risk Category III","2040 6TH AVE","SEATTLE","98121","(206) 906-9606",-122.33866948,47.61502235,"PR0085478",1
"10082","ANCHORED SHIP COFFEE BAR","Seating 0-12 - Risk Category II","5306 BALLARD AVE NW ","SEATTLE","98107","(206) 954-9215",-122.383208704,47.6667830434,"PR0066914",1
"10107","ANCHORHEAD COFFEE","Seating 13-50 - Risk Category II","1600 7TH AVE STE #105","SEATTLE","98101","(206) 963-6237",-122.33463,47.613333,"PR0086205",1
"10120","ANCHORHEAD COFFEE AND BAKERY","Seating 13-50 - Risk Category III","1115 12TH AVE ","SEATTLE","98122","(206) 963-6237",-122.3171956776,47.6119540728,"PR0076872",2
"10124","ANCHORHEAD COFFEE PIKE PLACE","Seating 13-50 - Risk Category II","2203 WESTERN AVE STE 110A","SEATTLE","98121","(206) 963-6237",-122.34654,47.61198,"PR0089124",1
"10218","ANGEL CITY DELI","Seating 0-12 - Risk Category III","12621 RENTON AVE S #C","SEATTLE","98178","(206) 772-2223",-122.2398031,47.49063666,"PR0083286",1
"10317","ANGELINE'S MEXICAN STORE LLC","Grocery Store-no seating - Risk Category I","5041 RAINIER AVE S STE 102","SEATTLE","98118","(206) 209-7502",-122.28409286,47.55598493,"PR0084797",NA
"10405","ANGELOS","Seating 51-150 - Risk Category III","601 SW 153RD ST ","Seattle","98166","(206) 244-3555",-122.3421671636,47.4656611014,"PR0004319",1
"10460","ANGKOR WOK","Seating 51-150 - Risk Category III","1100 NE 45TH ST STE 110","SEATTLE","98105","(425) 442-2608",-122.31623981,47.66154924,"PR0088793",1
"10461","ANGRY BEAVER","Seating 51-150 - Risk Category III","8412 GREENWOOD AVE N","Seattle","98103","(206) 437-8524",-122.3549535174,47.6903007881,"PR0008265",1
"10499","ANH SHENH","Grocery Store-no seating - Risk Category I","1041 S KING ST","SEATTLE","98104","(206) 323-2528",-122.31778912,47.59816143,"PR0088505",NA
"10502","ANIMATED CAFE","Mobile Food Unit - Risk Category II","10231 16th AVE SW","SEATTLE","98146","(720) 437-0406",-122.3554399,47.51088424,"PR0090162",NA
"10567","ANITA'S MEXICAN FOOD (KC458)","Mobile Food Unit - Risk Category III","10334 AURORA AVE N","SEATTLE","98133","(206) 856-0845",-122.34438137,47.7043925,"PR0085550",NA
"10627","ANNAPURNA CAFE","Seating 51-150 - Risk Category III","1833 BROADWAY AVE ","SEATTLE","98122","(206) 322-6473",-122.3210853891,47.6179631503,"PR0011133",2
"10701","ANTHONY'S FISH BAR","Seating 13-50 - Risk Category III","2201 ALASKAN WAY ","Seattle","98121","(206) 448-6688",-122.3490102929,47.6114353228,"PR0047368",1
"10942","ANTOJITAS LITA ROSITA (KC576)","Mobile Food Unit - Risk Category III","2524 16TH AVE","SEATTLE","98144","(206) 245-8230",-122.31132041,47.58033806,"PR0086605",NA
"10980","ANTOJITOS Y MAS","Mobile Food Unit - Risk Category III","5600 DELRIDGE WAY","SEATTLE","98106","(206) 251-5641",-122.12212119,47.6173309,"PR0089475",NA
"10989","ANTOJOS JALISCO","Mobile Food Unit - Risk Category III","18415 190th ST","SEATTLE","98168","(206) 578-0218",-122.28542912,47.49093771,"PR0087969",NA
"10990","ANTOJOS JALISCO LLC","Mobile Food Unit - Risk Category III","1841 S 120TH ST E","SEATTLE","98168","(206) 816-5380",-122.3767813798,47.6652149019,"PR0076675",NA
"11003","AOKI SUSHI & GRILL","Seating 51-150 - Risk Category III","621 BROADWAY AVE E ","SEATTLE","98102","(253) 740-1210",-122.3211831393,47.6244448582,"PR0012004",1
"11068","APOLLO  MARKET","Seating 0-12 - Risk Category III","325 9TH AVE N","SEATTLE","98109","",-122.34014817,47.62154292,"PR0088374",1
"11208","APPLEBEE'S NEIGHBORHOOD GRILL & BAR","Seating 151-250 - Risk Category III","17790 SOUTHCENTER PKWY ","SEATTLE","98188","(503) 722-2825",-122.2608907242,47.4436676914,"PR0020488",1
"11482","APSARA PALACE","Seating 13-50 - Risk Category III","9808 14TH AVE SW","SEATTLE","98106","(206) 670-7759",-122.3526043819,47.5151826729,"PR0052206",1
"11483","AQUA BY EL GAUCHO","Seating 51-150 - Risk Category III","2801 ALASKAN WAY","SEATTLE","98121","",-122.35566,47.61472,"PR0066594",2
"11531","AQUARIUM CAFE @ SODEXO","Seating 51-150 - Risk Category III","1483 ALASKAN WAY ","SEATTLE","98101","(206) 239-9609",-122.3424244521,47.6078803354,"PR0076789",1
"11567","ARAMARK  @ CONVENTION PLACE","Caterer - Risk Category III","800 CONVENTION PL ","Seattle","98101","(206) 694-5088",-122.3316780268,47.6117737434,"PR0018288",NA
"11569","ARAMARK  @ CONVENTION PLACE","Seating 13-50 - Risk Category II","800 CONVENTION PL 4TH FLOOR","SEATTLE","98101","(206) 694-5090",-122.331678,47.611774,"PR0084592",1
"11692","ARAMARK @ WASH. STATE CONV. & TRADE CENTER","Seating > 250 - Risk Category III","800 CONVENTION PL","SEATTLE","98101","",-122.33167802,47.61177374,"PR0080723",1
"11715","ARASHI RAMEN","Seating 13-50 - Risk Category III","5401 20TH AVE NW","Seattle","98107","(206) 492-7933",-122.3823148512,47.6677580711,"PR0001917",1
"11754","ARAYA'S PLACE","Seating 13-50 - Risk Category III","2808 E MADISON ST ","SEATTLE","98112","(206) 723-4545",-122.2960453563,47.6238184337,"PR0011620",2
"11756","ARAYA'S PLACE","Seating 51-150 - Risk Category III","5240 UNIVERSITY WAY NE #A","SEATTLE","98105","(206) 225-7442",-122.31267798,47.66761667,"PR0083048",2
"11918","ARBOR HEIGHTS ELEMENTARY SCHOOL","School Lunch Program - Risk II","3701 SW 104TH ST","SEATTLE","98146","(206) 252-0685",-122.378093,47.509517,"PR0086125",NA
"12131","ARBY'S 502","Seating 51-150 - Risk Category III","15822 1ST AVE S ","Seattle","98148","(253) 292-6907",-122.3334889859,47.4612942913,"PR0004324",1
"12159","ARC","Seating 13-50 - Risk Category III","6114 PHINNEY AVE N","Seattle","98103","(480) 829-7975",-122.3540616725,47.6736761857,"PR0017322",1
"12275","ARCHIPELAGO","Seating 0-12 - Risk Category III","5607 RAINIER AVE S","SEATTLE","98118","(360) 521-8758",-122.2782189,47.55169319,"PR0087990",1
"12370","ARCO AM / PM #7013","Seating 0-12 - Risk Category III","5620 M L KING JR WAY S ","Seattle","98118","(909) 293-7588",-122.2876036423,47.5514622848,"PR0011123",1
"12381","ARCO AM PM","Seating 0-12 - Risk Category III","950 N 85TH ST ","SEATTLE","98103","(425) 835-2885",-122.3451234152,47.690864155,"PR0010852",1
"12394","ARCO AM/PM","Seating 0-12 - Risk Category III","665 23RD AVE","Seattle","98122","(206) 860-2171",-122.303241,47.607812,"PR0016686",1
"12808","ARENA AT SEATTLE CENTER","Mobile Food Unit - Risk Category I","334 1ST AVE N","SEATTLE","98109","(206) 437-1240",-122.35458006,47.62250374,"PR0089971",NA
"12883","ARENA SPORTS","Seating 0-12 - Risk Category I","7751 63RD AVE NE","SEATTLE","98115","(425) 849-6285",-122.26328928,47.68691309,"PR0080955",1
"12927","ARENA SPORTS SEATTLE LLC","Seating 51-150 - Risk Category I","4636 E MARGINAL WAY S","SEATTLE","98134","(206) 762-8606",-122.33873623,47.56221028,"PR0086585",1
"12931","AREPA VENEZUELAN KITCHEN","Seating 13-50 - Risk Category III","1405 NE 50TH ST","SEATTLE","98105","(425) 876-9290",-122.3126859428,47.6647996157,"PR0001390",1
"12951","ARGOSY","Seating 51-150 - Risk Category I","1101 ALASKAN WAY 201","Seattle","98101","(206) 623-1445",-122.3399337292,47.6047874245,"PR0064016",1
"13067","ARMISTICE COFFEE","Seating 13-50 - Risk Category II","2201 EASTLAKE AVE E STE A","SEATTLE","98102","(206) 708-7501",-122.32607,47.63842,"PR0087696",1
"13069","ARMISTICE COFFEE","Seating 51-150 - Risk Category II","6717 ROOSEVELT WAY NE # 1","SEATTLE","98115","(425) 444-0695",-122.31764028,47.67779429,"PR0088421",1
"13070","ARMISTICE COFFEE","Seating 0-12 - Risk Category I","1914 1ST AVE #1","SEATTLE","98101","(425) 985-9749",-122.34169234,47.61079705,"PR0087101",1
"13085","ARMISTICE COFFEE WESTLAKE LLC","Seating 0-12 - Risk Category II","1601 5TH AVE STE 100","SEATTLE","98101","(425) 985-9749",-122.33716991,47.61192595,"PR0084333",1
"13103","AROOM","Seating 13-50 - Risk Category III","3801 Stone WAY N","Seattle","98103","(206) 889-3555",-122.34303445,47.65297721,"PR0090398",1
"13104","AROSA CAFE MADISON","Seating 0-12 - Risk Category III","3121 E MADISON ST #101","Seattle","98112","(206) 302-8077",-122.2912866521,47.6264826832,"PR0026127",1
"13122","AROY MAK THAI LLC","Caterer - Risk Category III","4611 36TH AVE SW","SEATTLE","98126","(425) 608-9539",-122.37776845,47.56171267,"PR0090289",NA
"13158","ART MARBLE 21","Seating 51-150 - Risk Category III","731 WESTLAKE AVE N ","SEATTLE","98109","(206) 223-0300",-122.3394555156,47.6264294442,"PR0023295",1
"13208","ART OF THE TABLE","Seating 13-50 - Risk Category III","3801 STONE WAY N STE A","SEATTLE","98103","(206) 282-0942",-122.34303445,47.6529772,"PR0086673",1
"13244","ARTHUR'S","Seating 51-150 - Risk Category III","2311 CALIFORNIA AVE SW ","Seattle","98116","(206) 550-0546",-122.3868071521,47.5825552808,"PR0003535",1
"13258","ARTISAN CAFE","Seating 13-50 - Risk Category III","2523 5th AVE","SEATTLE","98121","(206) 764-4557",-122.3456970417,47.6173651817,"PR0065244",1
"13281","ARTLY COFFEE","Seating 0-12 - Risk Category I","101 STEWART ST STE 102","Seattle","98101","(617) 513-9689",-122.3408888611,47.6102917079,"PR0017773",1
"13282","ARTSWEST","Seating 0-12 - Risk Category I","4711 CALIFORNIA AVE SW ","Seattle","98116","(360) 348-3622",-122.3871888213,47.560710337,"PR0054902",1
"13308","ASA MERCER MIDDLE SCHOOL","School Lunch Program - Risk II","1600 S COLUMBIAN WAY ","Seattle","98108","",-122.3120831465,47.5641327291,"PR0002315",NA
"13357","ASADERO SINALOA","Seating 51-150 - Risk Category III","5405 LEARY AVE N # B","SEATTLE","98107","(206) 765-6868",-122.3827005008,47.666893071,"PR0076903",2
"13402","ASEAN STREET","Seating 51-150 - Risk Category III","400 Pine ST #136","SEATTLE","98101","(425) 260-4464",-122.33721403,47.61169337,"PR0090656",NA
"13418","ASIA BBQ & FAST FOOD","Seating 0-12 - Risk Category III","655A S JACKSON ST","Seattle","98104","(206) 624-2275",-122.3246907414,47.5990191164,"PR0012906",2
"13577","ASIA GINGER TERIYAKI","Seating 13-50 - Risk Category III","209 2ND AVE S ","SEATTLE","98104","(206) 747-6936",-122.3319348498,47.6004888221,"PR0068989",1
"13580","ASIA GINGER TERIYAKI AND ROLL","Seating 13-50 - Risk Category III","4119 4TH AVE S","SEATTLE","98134","(206) 434-6859",-122.3300561463,47.5665922043,"PR0077423",2
"13587","ASIAN EXPRESS","Seating 0-12 - Risk Category III","701 5TH AVE ","Seattle","98104","(206) 237-9461",-122.3306146424,47.6045269408,"PR0022831",1
"13637","ASIAN FOOD CENTER","Meat/Sea Food - Risk Category III","13200 AURORA AVE N STE A","SEATTLE","98133","(206) 367-1229",-122.34360478,47.72503653,"PR0084672",NA
"14019","ASKATU","Seating 0-12 - Risk Category II","2209 4TH AVE","SEATTLE","98121","(530) 574-8059",-122.3429329697,47.6145585856,"PR0078088",1
"14021","ASLAN BREWING COMPANY LLC","Seating 13-50 - Risk Category I","401 N 36TH ST STE 102","SEATTLE","98103","(206) 619-6354",-122.35407,47.65192,"PR0088679",1
"14024","ASLE SERVICE STATION LLC","Seating 0-12 - Risk Category III","2802 RAINIER AVE S ","Seattle","98144","(206) 380-3864",-122.2974025258,47.5780302533,"PR0040612",1
"14026","ASSAGGIO RISTORANTE","Seating 151-250 - Risk Category III","2010 4TH AVE ","SEATTLE","98121","",-122.3399473848,47.6133693095,"PR0015517",1
"14106","AT THE PEAK","Seating 13-50 - Risk Category III","401 BROADWAY AVE","SEATTLE","98122","(443) 889-0994",-122.3211984964,47.6056239308,"PR0071429",1
"14113","ATE O'CLOCK THAI RESTAURANT","Seating 13-50 - Risk Category III","4736 UNIVERSITY WAY NE ","Seattle","98105","(206) 524-6339",-122.312753833,47.6642132036,"PR0052099",2
"14122","ATHENIAN INN","Seating 151-250 - Risk Category III","1517 PIKE PL","SEATTLE","98101","(206) 624-7166",-122.3408823957,47.6086943588,"PR0002320",2
"14245","ATHINA","Seating 13-50 - Risk Category III","528 QUEEN ANNE AVE N ","Seattle","98109","(206) 673-5900",-122.3564207558,47.6242735647,"PR0046789",1
"14272","ATLANTIC CROSSING, THE","Seating 51-150 - Risk Category III","6508 ROOSEVELT WAY NE","Seattle","98115","(206) 465-0711",-122.3170926031,47.6761516617,"PR0010743",1
"14349","ATRIUM KITCHEN AT PIKE PLACE MARKET","Seating 0-12 - Risk Category III","93 PIKE ST STE 101","SEATTLE","98101","(206) 829-9525",-122.34021113,47.60863139,"PR0083687",1
"14352","ATULEA","Seating 13-50 - Risk Category II","1715 12TH AVE STE 100","SEATTLE","98122","(206) 661-4204",-122.31722,47.61692,"PR0087954",1
"14971","AUDACITY WINEBAR ALEXANDRIA NICOLE CELLARS","Seating 13-50 - Risk Category III","800 PIKE ST","SEATTLE","98101","(509) 832-3877",-122.33207604,47.61240258,"PR0081038",1
"15108","AUNT BECKY'S DELI","Seating 13-50 - Risk Category III","19110 DES MOINES MEMORIAL DR S","Seattle","98148","",-122.3179793074,47.4315249925,"PR0011288",3
"15172","AURORA 76","Grocery Store-no seating - Risk Category I","8408 AURORA AVE N ","Seattle","98103","(425) 918-2828",-122.3440863597,47.6902232718,"PR0014539",NA
"15194","AURORA DONUTS","Seating 13-50 - Risk Category II","13201 AURORA AVE N ","Seattle","98133","(206) 364-9535",-122.346426055,47.7254580589,"PR0011966",1
"15225","AURORA MINI MART","Seating 0-12 - Risk Category III","10504 AURORA AVE N ","Seattle","98133","(206) 524-1417",-122.3442490251,47.7053993433,"PR0021328",1
"15275","AUSTRALIAN PIE CO","Seating 0-12 - Risk Category III","425 SW 152ND ST ","Seattle","98166","(206) 243-4138",-122.3403883936,47.466648964,"PR0004478",1
"15317","AUTUMN","Seating 13-50 - Risk Category III","6726 GREENWOOD AVE N","SEATTLE","98103","(206) 947-4902",-122.35508586,47.67851618,"PR0089656",2
"15322","AVANTHIKA'S HOME SERVICES","Caterer - Risk Category III","515 S MICHIGAN ST","SEATTLE","98108","(925) 549-5322",-122.32780988,47.54552363,"PR0089708",NA
"15370","AVANTI MARKETS NW @ CBRE","Grocery Store-no seating - Risk Category I","1420 5TH AVE STE 1700","SEATTLE","98101","(206) 737-8716",-122.33466292,47.61054676,"PR0086078",NA
"15373","AVANTI MARKETS NW @ CHARLIE'S PRODUCE","Grocery Store-no seating - Risk Category I","3844 1ST AVE S","SEATTLE","98134","(206) 737-8736",-122.33363529,47.56872839,"PR0086028",NA
"15374","AVANTI MARKETS NW @ CHARLIE'S PRODUCE","Grocery Store-no seating - Risk Category I","4103 2ND AVE S STE 800","SEATTLE","98134","",-122.33242933,47.56706577,"PR0086026",NA
"15389","AVANTI MARKETS NW @ IDA CULVER HOUSE","Grocery Store-no seating - Risk Category I","12505 GREENWOOD AVE N","SEATTLE","98133","(206) 737-8716",-122.356773,47.720858,"PR0086015",NA
"15413","AVANTI MARKETS NW @ PIMA","Grocery Store-no seating - Risk Category I","9709 3RD AVE NE STE 400","SEATTLE","98115","(206) 737-8716",-122.32691976,47.69916455,"PR0086013",NA
"15422","AVANTI MARKETS NW @ PIONEER 1 WEST","Grocery Store-no seating - Risk Category I","7000 HIGHLAND PARK WAY SW","SEATTLE","98106","(206) 373-8716",-122.34424352,47.53934578,"PR0086020",NA
"15426","AVANTI MARKETS NW @ QUEST DIAGNOSTICS","Grocery Store-no seating - Risk Category I","1737 AIRPORT WAY S","SEATTLE","98134","(206) 737-8716",-122.32213381,47.58716678,"PR0086019",NA
"15430","AVANTI MARKETS NW @ SEATTLE CANCER CARE ALLIANCE","Grocery Store-no seating - Risk Category I","1144 EASTLAKE AVE E","SEATTLE","98109","(206) 737-8716",-122.328263,47.629578,"PR0086010",NA
"15436","AVANTI MARKETS NW @ SSA MARINE","Grocery Store-no seating - Risk Category I","1131 SW KLICKITAT WAY","SEATTLE","98134","(206) 737-8716",-122.34702011,47.57001543,"PR0086023",NA
"15446","AVANTI MARKETS NW @ TOYOTA HONDA OF SEATTLE","Grocery Store-no seating - Risk Category I","2005 AIRPORT WAY S","SEATTLE","98134","(206) 737-8716",-122.32194561,47.58540345,"PR0086018",NA
"15461","AVANTI MARKETS NW @ USPS","Grocery Store-no seating - Risk Category I","10700 27TH AVE S","SEATTLE","98168","(206) 737-8716",-122.29767987,47.507116,"PR0086030",NA
"15466","AVANTI MARKETS NW @ UW PHYSICIANS","Grocery Store-no seating - Risk Category I","701 5TH AVE","SEATTLE","98104","(206) 737-8716",-122.33061288,47.60452875,"PR0086006",NA
"15490","AVIV HUMMUS BAR","Seating 13-50 - Risk Category III","107 15TH AVE E","SEATTLE","98112","(425) 358-0245",-122.312898349,47.6187843739,"PR0081181",1
"15497","AVOLE","Seating 13-50 - Risk Category I","2330 E Union ST","SEATTLE","98122","(206) 565-4884",-122.30185019,47.61312408,"PR0090285",1
"15498","AWADAY TRADING INC.","Seating 0-12 - Risk Category II","6727 C M L KING JR WAY S","SEATTLE","98118","(206) 669-9271",-122.283917925,47.5421313191,"PR0078100",1
"15521","AXUM FOODS","Caterer - Risk Category III","501 2ND AVE W #100","SEATTLE","98119","(612) 203-7540",-122.3618487,47.6234696,"PR0087766",NA
"15529","Ay Caramba Market LLC","Grocery Store-no seating - Risk Category I","11002 1st AVE S ste A","SEATTLE","98168","(206) 650-7726",-122.3333432,47.50499704,"PR0090695",NA
"15571","AYUTTHAYA THAI RESTAURANT","Seating 13-50 - Risk Category III","727 E PIKE ST ","Seattle","98122","(206) 324-8833",-122.3222902458,47.6139447698,"PR0010909",2
"15651","Azmera Market LLC","Grocery Store-no seating - Risk Category I","6464 MARTIN LUTHER KING JR WAY S STE 103","Seattle","98118","(206) 227-8659",-122.28405,47.54415,"PR0090449",NA
"15654","AZTECA MEXICAN RESTAURANT","Seating > 250 - Risk Category III","153 SW 157TH ST","Seattle","98166","(206) 243-2241",-122.3362302737,47.4620560922,"PR0049505",1
"15790","AZTECA RESTAURANT","Seating > 250 - Risk Category III","17555 SOUTHCENTER PKWY ","Seattle","98188","(206) 575-0990",-122.2620975266,47.4458899422,"PR0004396",2
"15794","AZTECA RESTAURANT","Seating 151-250 - Risk Category III","401 NE NORTHGATE WAY ","SEATTLE","98125","(503) 309-7792",-122.3237687944,47.708248492,"PR0066727",2
"15938","AZUKI","Seating 0-12 - Risk Category III","2711 E MADISON ST","SEATTLE","98112","(206) 228-5577",-122.29701729,47.62272098,"PR0088888",1
"15941","AZUMA SUSHI","Seating 13-50 - Risk Category III","4529 CALIFORNIA AVE SW ","Seattle","98116","(206) 937-1148",-122.3870963173,47.5621317968,"PR0003280",1
"15997","B & E MEATS & SEAFOOD","Meat/Sea Food - Risk Category III","2401 QUEEN ANNE AVE N ","SEATTLE","98109","(206) 284-3885",-122.3573489099,47.639692687,"PR0007229",NA
"15999","B & E MEATS & SEAFOOD, INC.","Meat/Sea Food - Risk Category III","22501 MARINE VIEW DR S ","Seattle","98198","(206) 878-3700",-122.3249954201,47.4002899716,"PR0007295",NA
"16000","B F DAY ELEMENTARY SCHOOL KITC","School Lunch Program - Risk II","3921 LINDEN AVE N ","Seattle","98103","",-122.349123722,47.6546354618,"PR0001097",NA
"16038","B'S HOT DOGS","Mobile Food Unit - Risk Category II","902 1ST AVE S","SEATTLE","98134","(253) 720-8758",-122.333775,47.586421,"PR0052253",NA
"16060","B-SIDE FOODS","Seating 0-12 - Risk Category III","421 E THOMAS ST ","SEATTLE","98102","(206) 661-4794",-122.3256715804,47.6206059475,"PR0077030",1
"16072","BA BAR","Seating 13-50 - Risk Category III","550 12TH AVE","SEATTLE","98122","(206) 434-1221",-122.31648289,47.60700021,"PR0081445",1
"16128","BA BAR RESTAURANT (U VILLAGE)","Seating 51-150 - Risk Category III","2685 NE 46TH ST","SEATTLE","98105","(206) 434-1221",-122.2980609,47.66165074,"PR0083570",1
"16168","BA BAR- SOUTH LAKE UNION","Seating 51-150 - Risk Category III","500 TERRY AVE N","SEATTLE","98109","(206) 434-1221",-122.33683743,47.62342887,"PR0086346",2
"16179","BA MIEN SEAFOOD MARKET","Meat/Sea Food - Risk Category III","6951 M L KING JR WAY S ","SEATTLE","98118","(206) 725-7974",-122.2831149823,47.5393131493,"PR0069003",NA
"16350","BABIDOM LLC HIMALAYAN BAMBINO","Seating 13-50 - Risk Category III","401 CEDAR ST ","SEATTLE","98121","(206) 728-7835",-122.3476119646,47.6179065532,"PR0008456",1
"16375","BACCO CAFE , LLC","Seating 13-50 - Risk Category III","86 PINE ST","Seattle","98101","(206) 443-5443",-122.3414391205,47.609885817,"PR0033240",2
"16419","BACK DOOR PUB","Seating 13-50 - Risk Category I","12330 LAKE CITY WAY NE ","SEATTLE","98125","(206) 722-5730",-122.2955784403,47.7182740829,"PR0001099",1
"16449","Backfire Moto LLC","Seating 13-50 - Risk Category I","7701 Aurora AVE N","Seattle","98103","(206) 714-8348",-122.34484524,47.68491106,"PR0090138",1
"16451","BACKYARDS","Seating 13-50 - Risk Category III","3820 S FERDINAND ST STE 102","SEATTLE","98118","(206) 722-0301",-122.28422156,47.55809008,"PR0086424",1
"16464","BAD ALBERTS TAP AND GRILL","Seating 13-50 - Risk Category III","5100 BALLARD AVE NW ","SEATTLE","98107","(206) 782-9623",-122.3807675792,47.6647102425,"PR0002024",2
"16491","BAD BAR","Seating 51-150 - Risk Category III","819 5TH AVE N","SEATTLE","98109","(206) 383-4058",-122.3477040612,47.6269078745,"PR0070126",1
"16493","BAD BISHOP","Seating 51-150 - Risk Category III","704 1ST AVE ","Seattle","98104","(206) 623-3440",-122.3342702912,47.6028557819,"PR0003449",1
"16500","BAD EGG BREAKFAST BAR (KIOSK)","Grocery Store-no seating - Risk Category I","17801 INTERNATIONAL BL NS-25","SEATTLE","98158","(206) 900-3381",-122.302146,47.443015,"PR0090135",NA
"16501","BAD JIMMY'S BREWING COMPANY","Seating 0-12 - Risk Category I","4358 B LEARY WAY NW","SEATTLE","98107","(206) 465-6758",-122.36566625,47.66026558,"PR0083688",1
"16502","BAEGOPA","Seating 51-150 - Risk Category III","509 7TH AVE S","SEATTLE","98104","(206) 438-4108",-122.32391786,47.59792214,"PR0089186",1
"16513","BAGEL BOARD LLC dba OXBOW","Seating 13-50 - Risk Category III","2407 24th AVE E","Seattle","98112","(206) 322-6617",-122.30239226,47.64056755,"PR0090323",1
"16514","BAGEL OASIS","Seating 13-50 - Risk Category III","2112 NE 65TH ST ","Seattle","98115","(206) 526-3605",-122.3046109239,47.6759063499,"PR0019524",3
"16580","BAGELBOP","Seating 0-12 - Risk Category III","93 PIKE ST ","SEATTLE","98101","(425) 773-0296",-122.340212876,47.608629597,"PR0026401",1
"16628","BAHN THAI RESTAURANT","Seating 51-150 - Risk Category III","409 ROY ST ","Seattle","98109","(206) 283-0444",-122.3483603464,47.6252591819,"PR0008463",1
"16836","BAI TONG THAI STREET CAFE","Seating 51-150 - Risk Category III","1121 E PIKE ST ","SEATTLE","98122","(206) 330-1165",-122.3171813389,47.6139182211,"PR0076871",1
"16856","BAILEY GATZERT ELEMENTARY","School Lunch Program - Risk II","1301 E YESLER WAY ","Seattle","98122","",-122.3156076391,47.6011442523,"PR0020855",NA
"16890","BAIT SHOP","Seating 13-50 - Risk Category III","606-B BROADWAY AVE E","SEATTLE","98102","(206) 324-2635",-122.320690523,47.6246326349,"PR0081385",1
"16943","BAJA TACOS & BEER","Seating 13-50 - Risk Category III","9211 HOLMAN RD NW ","Seattle","98117","(206) 783-0719",-122.3724241449,47.6968672896,"PR0008260",3
"16979","BAJON EN SEATTLE","Seating 13-50 - Risk Category III","8909 14TH AVE S","SEATTLE","98108","(206) 245-5179",-122.31534283,47.52356088,"PR0084113",NA
"16980","BAJON EN SEATTLE","Caterer - Risk Category III","3201 4TH AVE S STE B","SEATTLE","98134","(206) 245-5179",-122.32949893,47.57528162,"PR0090363",NA
"16981","BAKARO WEST SEATTLE LLC","Meat/Sea Food - Risk Category III","10261 16TH AVE SW","SEATTLE","98146","(612) 707-6641",-122.35527,47.51024,"PR0090696",NA
"16982","BAKE SHOP","Seating 13-50 - Risk Category III","221 1st AVE W","SEATTLE","98119","(206) 941-0708",-122.35841866,47.62052906,"PR0089953",1
"17021","BAKED","Bakery-no seating - Risk Category I","2604 CALIFORNIA AVE SW","SEATTLE","98116","",-122.38622998,47.5808954,"PR0081674",NA
"17032","BAKED FROM THE HART","Bakery-no seating - Risk Category II","2801 S HANFORD ST ","SEATTLE","98144","",-122.2964247779,47.5744750504,"PR0077156",NA
"17036","BAKED IN BOSNIA LLC","Caterer - Risk Category III","501 2ND AVE W 100","SEATTLE","98119","(608) 436-0297",-122.35970778,47.62344736,"PR0089355",NA
"17037","BAKERS DOZEN CATERING","Caterer - Risk Category III","4634 E MARGINAL WAY STE E-120","SEATTLE","98134","(253) 632-9368",-122.33853,47.56114,"PR0088331",NA
"17039","BAKERS'S","Seating 13-50 - Risk Category III","6408 32ND AVE NW","SEATTLE","98107","(509) 302-2003",-122.3981704,47.67570696,"PR0088192",1
"17058","BAKERY NOUVEAU","Seating 0-12 - Risk Category III","4737 CALIFORNIA AVE SW ","SEATTLE","98116","",-122.3870271899,47.559992543,"PR0002388",1
"17059","BAKERY NOUVEAU","Seating 13-50 - Risk Category III","1435 E JOHN ST #137","SEATTLE","98112","(206) 923-0534",-122.31308405,47.61949866,"PR0083063",1
"17128","BAKERY THE ORIGINAL","Seating 13-50 - Risk Category II","9253 45TH AVE SW ","Seattle","98136","(206) 938-5088",-122.39040263,47.5206609159,"PR0002335",1
"17161","BAKKALCH MINI MARKET","Grocery Store-no seating - Risk Category I","7909 A RAINIER AVE S","SEATTLE","98118","(206) 412-8381",-122.27033009,47.53126486,"PR0081995",NA
"17173","BALAGERU INTERNATIONAL MART","Seating 0-12 - Risk Category I","7631 RAINIER AVE S","SEATTLE","98118","(206) 263-1271",-122.2705215636,47.5337732815,"PR0004100",1
"17221","BALLARD 76","Seating 0-12 - Risk Category I","5715 15TH AVE NW","Seattle","98107","(206) 784-2699",-122.3766981451,47.6706554849,"PR0012156",1
"17249","BALLARD BEER COMPANY","Seating 13-50 - Risk Category I","2050 NW MARKET ST","SEATTLE","98107","(206) 446-5222",-122.38430452,47.66894693,"PR0084093",1
"17269","BALLARD COFFEE COMPANY","Seating 13-50 - Risk Category III","5905 15TH AVE NW","SEATTLE","98107","(206) 948-2325",-122.3765728251,47.6718465513,"PR0034707",1
"17270","BALLARD COMMUNITY CENTER","Non-Profit Institution - Risk Category II","6020 28TH AVE NW ","Seattle","98107","(206) 684-4093",-122.3922393463,47.6728764302,"PR0043861",NA
"17295","BALLARD ELKS #827","Non-Profit Institution - Risk Category III","6411 SEAVIEW AVE NW ","Seattle","98107","(206) 784-0827",-122.4081794359,47.6751307352,"PR0002152",NA
"17372","BALLARD FOOD BANK","Non-Profit Institution - Risk Category III","1400 NW Leary WAY","Seattle","98107","(206) 789-7800",-122.37399809,47.66390789,"PR0089928",NA
"17374","BALLARD HIGH SCHOOL KITCHEN","School Lunch Program - Risk II","1418 NW 65TH ST ","Seattle","98117","",-122.3754427878,47.6767075635,"PR0001107",NA
"17412","BALLARD JAM HOUSE","Seating 13-50 - Risk Category III","1707 NW MARKET ST ","Seattle","98107","(206) 941-5181",-122.3793372175,47.668527686,"PR0049380",1
"17456","BALLARD KISS CAFE","Seating 13-50 - Risk Category III","2817 NW MARKET ST","SEATTLE","98107","(206) 459-7415",-122.393739957,47.6684704239,"PR0068760",2
"17482","BALLARD LANDMARK INN","Seating 51-150 - Risk Category III","5433 LEARY AVE NW","SEATTLE","98107","(206) 728-0935",-122.3834160403,47.6672574745,"PR0077514",1
"17535","BALLARD LOFT RESTAURANT & BAR","Seating 51-150 - Risk Category III","5105 BALLARD AVE NW ","SEATTLE","98107","(206) 910-9672",-122.3813558785,47.6644771199,"PR0077084",2
"17539","BALLARD MAIL & DISPATCH- SIP & SHIP","Seating 13-50 - Risk Category II","1752 NW MARKET ST","SEATTLE","98107","",-122.3811484089,47.6689416432,"PR0068016",1
"17589","BALLARD MANDARIN CHINESE RESTAURANT","Seating 51-150 - Risk Category III","5500 8TH AVE NW ","Seattle","98107","(206) 407-7436",-122.3659281788,47.6689275545,"PR0001474",3
"17740","BALLARD MARKET","Seating 0-12 - Risk Category III","1400 NW 56TH ST ","Seattle","98107","(206) 784-7064",-122.3743007113,47.6698391244,"PR0013794",1
"17933","BALLARD NW SENIOR CENTER","Non-Profit Institution - Risk Category III","5429 32ND AVE NW","Seattle","98107","",-122.3986682512,47.668371511,"PR0001687",NA
"17986","BALLARD PHO & TERIYAKI","Seating 13-50 - Risk Category III","6315 15TH AVE NW ","Seattle","98107","(206) 687-0690",-122.376469284,47.6751587961,"PR0001364",2
"18006","BALLARD PIZZA COMPANY","Seating 13-50 - Risk Category III","5107 BALLARD AVE NW","SEATTLE","98107","(206) 588-0030",-122.38123176,47.66458111,"PR0082099",2
"18016","BALLARD SMOKE SHOP","Seating 51-150 - Risk Category III","5439 BALLARD AVE NW ","SEATTLE","98107","(206) 784-6611",-122.3862847767,47.6683128898,"PR0001111",1
"18039","BAMBOO GARDEN TERIYAKI","Seating 13-50 - Risk Category III","17652 1ST AVE S","Seattle","98148","(206) 901-9225",-122.3331827242,47.4442183488,"PR0018472",1
"18058","BAMBOO RESTAURANT","Seating 51-150 - Risk Category III","345 15TH AVE E STE 201","Seattle","98112","(425) 770-9809",-122.3130457185,47.6218553144,"PR0020235",3
"18063","BAMBOO SUSHI U VILLAGE SEATTLE LLC","Seating 51-150 - Risk Category III","2675 NE UNIVERSITY VILLAGE ST","SEATTLE","98105","(206) 478-0844",-122.3005788,47.662074,"PR0088444",1
"18069","BAMBOO THAI CUISINE","Seating 13-50 - Risk Category III","1841 42ND AVE E ","SEATTLE","98112","(206) 324-6467",-122.2789079932,47.6358445529,"PR0063189",2
"18079","BAMBOO VILLAGE","Seating 151-250 - Risk Category III","4900 STONE WAY N","SEATTLE","98103","(206) 632-8888",-122.3402418,47.6645688,"PR0080605",2
"18084","BAMBU DESSERT & DRINK","Seating 51-150 - Risk Category III","516 7TH AVE S STE A","SEATTLE","98104","(206) 565-6853",-122.32348677,47.59785888,"PR0082411",2
"18112","BAMBUZA SEATAC VENTURES , LLC","Seating 13-50 - Risk Category III","17801 INTERNATIONAL BL NS-3","SEATTLE","98158","(503) 256-2222",-122.302317,47.448592,"PR0088146",2
"18122","BAN HUA SAI","Seating 13-50 - Risk Category III","9400 ROOSEVELT WAY NE STE B","SEATTLE","98115","(425) 281-3417",-122.3172558319,47.6969293809,"PR0069062",3
"18141","BAN ME RESTAURANT","Seating 51-150 - Risk Category III","11843 RENTON AVE S","SEATTLE","98178","(206) 787-0981",-122.24458806,47.49581784,"PR0088373",NA
"18169","BANANAS GRILL","Seating 13-50 - Risk Category III","4556 M L KING JR WAY S","SEATTLE","98108","(206) 420-9751",-122.293813,47.56199,"PR0081771",2
"18203","BANDIDO'S MEXICAN GRILL","Mobile Food Unit - Risk Category III","1222 S WELLER ST STE A","SEATTLE","98144","(425) 223-9826",-122.38407068,47.58099927,"PR0089331",NA
"18205","BANG BANG CAFE, LLC","Seating 13-50 - Risk Category III","2460 WESTERN AVE ","SEATTLE","98121","",-122.3491022347,47.6139519443,"PR0052975",1
"18240","BANG BANG KITCHEN","Seating 51-150 - Risk Category III","4219 S OTHELLO ST","SEATTLE","98118","(206) 418-9667",-122.279975,47.536884,"PR0083611",1
"18250","BANG BAR THAI","Seating 51-150 - Risk Category III","4750 CALIFORNIA AVE SW ","SEATTLE","98116","",-122.3866016195,47.5595322547,"PR0071003",2
"18333","BANGKOK 99 (KC497)","Mobile Food Unit - Risk Category III","13001 LAKE CITY WAY NE","SEATTLE","98125","(206) 915-9115",-122.29339708,47.72353555,"PR0086250",NA
"18454","BANGRAK MARKET","Seating 51-150 - Risk Category III","2319 2ND AVE ","SEATTLE","98121","(425) 293-4002",-122.3465065211,47.6143256202,"PR0077578",1
"18462","BANH TOWN","Seating 13-50 - Risk Category III","10414 HOLMAN RD NW ","SEATTLE","98133","(415) 690-9654",-122.3564838413,47.7043546587,"PR0020895",2
"18512","BANHMI DELUX & BOSSTEA","Seating 0-12 - Risk Category III","6408 M L KING JR WAY S","SEATTLE","98118","(510) 599-9578",-122.2846362971,47.5450244942,"PR0071948",2
"18565","BAR CANTINETTA","Seating 13-50 - Risk Category III","2811 E MADISON ST","SEATTLE","98112","(206) 568-5153",-122.2955081587,47.6236160146,"PR0076121",2
"18589","BAR COTTO","Seating 13-50 - Risk Category III","1546 15TH AVE","SEATTLE","98122","(206) 235-8276",-122.3125261687,47.6148068074,"PR0077860",1
"18592","BAR DEL CORSO","Seating 13-50 - Risk Category III","3057 BEACON AVE S","SEATTLE","98144","(206) 250-3277",-122.30954819,47.57543066,"PR0081447",1
"18614","BAR HARBOR","Seating 13-50 - Risk Category III","400 FAIRVIEW AVE N","SEATTLE","98109","(206) 683-9001",-122.3339003,47.62251234,"PR0086109",1
"18615","BAR HARBOR","Seating 13-50 - Risk Category I","400 FAIRVIEW AVE N STE 105","SEATTLE","98109","(206) 683-9001",-122.33868175,47.44268429,"PR0085891",1
"18628","BAR HOUSE LLC","Seating 13-50 - Risk Category II","503 N 36TH ST STE B","SEATTLE","98103","(253) 232-4503",-122.35218462,47.65147167,"PR0086472",1
"18632","BAR MELUSINE","Seating 51-150 - Risk Category III","1060 E UNION ST","SEATTLE","98122","(206) 900-8770",-122.3191156,47.61325978,"PR0085367",1
"18644","BAR MIRIAM","Seating 13-50 - Risk Category III","307 W McGraw ST","Seattle","98119","(509) 302-2003",-122.36135684,47.63947833,"PR0090146",1
"18647","BAR SOLEA","Seating 51-150 - Risk Category III","822 1ST AVE","SEATTLE","98104","(206) 683-3056",-122.33497,47.60403,"PR0088557",1
"18653","Bar Sur Mer","Seating 13-50 - Risk Category III","219 N 85TH ST","Seattle","98103","(206) 217-9514",-122.3580005,47.6904965,"PR0090366",1
"18654","BARANOF RESTAURANT","Seating 51-150 - Risk Category III","8549 GREENWOOD AVE N ","Seattle","98103","(206) 782-9260",-122.3555695276,47.691766531,"PR0001116",2
"18743","BARK ESPRESSO","Seating 0-12 - Risk Category III","11335 ROOSEVELT WAY NE","SEATTLE","98125","(206) 482-3003",-122.31813269,47.71130304,"PR0080351",1
"18773","BARKING DOG ALE HOUSE","Seating 13-50 - Risk Category III","705 NW 70TH ST","SEATTLE","98117","(206) 910-0997",-122.364794738,47.6794463476,"PR0008282",2
"18823","BARNACLE","Seating 13-50 - Risk Category II","4743 BALLARD AVE NW","SEATTLE","98107","(734) 320-1846",-122.380145,47.663595,"PR0083413",1
"18835","BARNES & NOBLE","Seating 13-50 - Risk Category III","401 NE NORTHGATE WAY 1100 ","SEATTLE","98125","(972) 892-4215",-122.3237687944,47.708248492,"PR0076873",1
"19035","BAROLO RESTAURANT","Seating 51-150 - Risk Category III","1940 WESTLAKE AVE ","SEATTLE","98101","",-122.3375527973,47.6145164985,"PR0069638",2
"19118","BARREL THIEF, THE","Seating 51-150 - Risk Category III","3417 EVANSTON AVE N #102","SEATTLE","98103","(206) 372-4747",-122.35161309,47.65049575,"PR0082448",1
"19142","BARRIGA LLENA CART (KC586)","Mobile Food Unit - Risk Category III","7811 AURORA AVE N","SEATTLE","98103","(206) 317-9700",-122.34491088,47.68601559,"PR0086669",NA
"19147","BARRIO","Seating 51-150 - Risk Category III","1420 12TH AVE ","SEATTLE","98122","(206) 838-3852",-122.3165764306,47.613453565,"PR0077652",2
"19217","BARRY'S BOOTCAMP US","Seating 0-12 - Risk Category II","112 WESTLAKE AVE N","SEATTLE","98109","(323) 488-2148",-122.33810053,47.61894316,"PR0088176",1
"19220","BARTELL DRUGS  #06910","Grocery Store-no seating - Risk Category I","1101 MADISON ST ","SEATTLE","98104","(717) 214-8545",-122.3243231257,47.6092270654,"PR0040159",NA
"19225","BARTELL DRUGS  #06961","Seating 0-12 - Risk Category II","900 4TH AVE ","SEATTLE","98104","(717) 214-8545",-122.3320119446,47.6059699996,"PR0069884",1
"19227","BARTELL DRUGS #06901","Grocery Store-no seating - Risk Category I","1628 5TH AVE ","Seattle","98101","(717) 214-8545",-122.3370212269,47.6124975521,"PR0004183",NA
"19228","BARTELL DRUGS #06902","Seating 0-12 - Risk Category II","1500 NW MARKET ST #101","SEATTLE","98107","(717) 214-8545",-122.376643,47.668921,"PR0083819",1
"19232","BARTELL DRUGS #06908","Grocery Store-no seating - Risk Category I","9600 15TH AVE SW","SEATTLE","98106","(717) 214-8545",-122.3534542397,47.517237415,"PR0070052",NA
"19233","BARTELL DRUGS #06909","Grocery Store-no seating - Risk Category I","100 N 85TH ST","SEATTLE","98103","(717) 214-8545",-122.35740164,47.69100622,"PR0083474",NA
"19234","BARTELL DRUGS #06911","Grocery Store-no seating - Risk Category I","4344 UNIVERSITY WAY NE ","SEATTLE","98105","(717) 214-8545",-122.3128507588,47.661115427,"PR0001122",NA
"19235","BARTELL DRUGS #06914","Grocery Store-no seating - Risk Category I","1820 N 45TH ST ","SEATTLE","98103","(717) 214-8545",-122.3354952464,47.6616134533,"PR0069997",NA
"19237","BARTELL DRUGS #06916","Grocery Store-no seating - Risk Category I","4706 42ND AVE SW ","SEATTLE","98116","(717) 214-8545",-122.3852186402,47.5609416373,"PR0070049",NA
"19243","BARTELL DRUGS #06923","Grocery Store-no seating - Risk Category I","1407 BROADWAY","SEATTLE","98122","(717) 214-8545",-122.320967,47.613305,"PR0070051",NA
"19244","BARTELL DRUGS #06924","Grocery Store-no seating - Risk Category I","6401 12TH AVE NE ","SEATTLE","98115","(717) 214-8545",-122.3159013915,47.6750045646,"PR0070000",NA
"19251","BARTELL DRUGS #06931","Grocery Store-no seating - Risk Category I","2700 NE UNIVERSITY VILLAGE ST ","SEATTLE","98105","(717) 214-8545",-122.2974595724,47.6635570058,"PR0069350",NA
"19255","BARTELL DRUGS #06936","Seating 0-12 - Risk Category I","1001 MERCER ST","SEATTLE","98109","(717) 214-8545",-122.33673327,47.62438306,"PR0083318",1
"19257","BARTELL DRUGS #06938","Grocery Store-no seating - Risk Category I","2222 32ND AVE W ","SEATTLE","98199","(717) 214-8545",-122.3979116825,47.6383871026,"PR0026082",NA
"19260","BARTELL DRUGS #06942","Grocery Store-no seating - Risk Category I","600 1ST AVE N ","SEATTLE","98109","(717) 214-8545",-122.3549896766,47.6248429804,"PR0046964",NA
"19265","BARTELL DRUGS #06956","Grocery Store-no seating - Risk Category I","2345 42ND AVE SW ","SEATTLE","98116","(717) 214-8545",-122.3855138818,47.5820417244,"PR0067424",NA
"19268","BARTELL DRUGS #06963","Grocery Store-no seating - Risk Category I","2345 RAINIER AVE S ","SEATTLE","98144","(717) 214-8545",-122.3012204286,47.581688235,"PR0076754",NA
"19270","BARTELL DRUGS #06966","Grocery Store-no seating - Risk Category I","3018 NE 125TH ST ","SEATTLE","98125","(717) 214-8545",-122.2957264305,47.7194231413,"PR0076976",NA
"19271","BARTELL DRUGS #06967","Grocery Store-no seating - Risk Category I","1929 QUEEN ANNE AVE N ","SEATTLE","98109","(206) 763-2626",-122.3573448441,47.6367833589,"PR0077195",NA
"19286","BARTELL DRUGS #06971","Seating 0-12 - Risk Category II","5625 22ND AVE NW","SEATTLE","98107","(717) 214-8545",-122.38504964,47.66985079,"PR0086291",1
"19288","BARTELL DRUGS #06973","Seating 0-12 - Risk Category II","419 NE 71ST ST STE A","SEATTLE","98115","(717) 214-8545",-122.32334585,47.67987863,"PR0086950",1
"19290","BARTELL DRUGS #06977","Grocery Store-no seating - Risk Category I","2506 2ND AVE","SEATTLE","98121","(717) 214-8545",-122.34810847,47.6157103,"PR0088637",NA
"19293","BASCULE CAFE @ ADOBE","Seating 0-12 - Risk Category III","801 N 34TH ST","SEATTLE","98103","(206) 200-8159",-122.34791,47.64824,"PR0089015",1
"19301","BASIL - VIET KITCHEN","Seating 13-50 - Risk Category III","4002 UNIVERSITY WAY NE ","SEATTLE","98105","",-122.3131176994,47.6554791916,"PR0011347",2
"19338","BASILIC","Seating 51-150 - Risk Category III","352 ROY ST","Seattle","98109","(253) 234-4054",-122.3498984161,47.6256043855,"PR0010886",2
"19402","BASKIN-ROBBINS","Seating 0-12 - Risk Category II","826 NE NORTHGATE WAY ","Seattle","98125","(425) 346-5627",-122.319244471,47.7095696024,"PR0001124",1
"19405","BASKIN-ROBBINS","Seating 0-12 - Risk Category II","2001 RAINIER AVE S ","Seattle","98144","(206) 676-2343",-122.3039938014,47.5853315238,"PR0002349",1
"19522","BASTYR CENTER FOR NATURAL HEALTH","Grocery Store-no seating - Risk Category I","3670 STONE WAY N","SEATTLE","98103","(206) 834-4000",-122.342197374,47.6523241894,"PR0072193",NA
"19597","BATCH BAKING COMPANY","Seating 0-12 - Risk Category III","808 12TH AVE","SEATTLE","98122","(206) 753-8579",-122.31657676,47.60952974,"PR0085015",1
"19601","BATEAU","Seating 13-50 - Risk Category III","1040 E UNION ST","SEATTLE","98122","(206) 900-8699",-122.318594,47.61313932,"PR0086526",1
"19613","BATHTUB GIN & CO.","Seating 0-12 - Risk Category I","2205 2ND AVE 603","SEATTLE","98121","(206) 728-6069",-122.3447634854,47.6131507338,"PR0077850",1
"19621","BAUHAUS CAPITOL HILL","Seating 13-50 - Risk Category II","515 HARVARD AVE E #121","SEATTLE","98102","(206) 913-2838",-122.32229068,47.62366009,"PR0086235",2
"19623","BAY CAFE  #108","Seating 51-150 - Risk Category III","1900 W NICKERSON ST #108","Seattle","98119","(206) 282-3435",-122.3811576944,47.6555407997,"PR0017993",2
"19739","BB'S TERIYAKI GRILL","Seating 13-50 - Risk Category III","210 WESTLAKE AVE N","SEATTLE","98109","(206) 484-2236",-122.33813,47.619993,"PR0083535",2
"19743","BB'S TERIYAKI GRILL","Seating 13-50 - Risk Category III","1111 3RD AVE","SEATTLE","98101","(206) 484-2236",-122.33532999,47.60655571,"PR0086431",1
"19753","BB'S TERIYAKI GRILL LLC","Seating 13-50 - Risk Category III","4221 UNIVERSITY WAY NE","SEATTLE","98105","(206) 484-2236",-122.31362792,47.65901983,"PR0086743",1
"19806","BE'S RESTAURANT","Seating 13-50 - Risk Category III","4509 CALIFORNIA AVE SW","Seattle","98116","(206) 937-1110",-122.3870942844,47.5626141888,"PR0002304",2
"19890","BEACH COMBER SPORTS BAR AND GRILL","Seating 51-150 - Risk Category III","12623 RENTON AVE S ","Seattle","98178","(206) 687-6798",-122.2396130003,47.4904853845,"PR0005187",1
"19974","BEACON AVENUE SHELL FOOD MART","Seating 0-12 - Risk Category III","2424 BEACON AVE S ","Seattle","98144","(253) 235-5689",-122.3137773006,47.5815154957,"PR0011300",1
"20034","BEACON BBQ DELI","Seating 0-12 - Risk Category III","4886 BEACON AVE S","Seattle","98108","",-122.3036610964,47.558517023,"PR0018272",2
"20114","BEACON GRILL","Seating 51-150 - Risk Category III","4101 BEACON AVE S","SEATTLE","98108","(206) 254-1980",-122.3076112,47.5669798,"PR0084742",1
"20130","BEACON HILL 76","Seating 0-12 - Risk Category III","2415 BEACON AVE S","Seattle","98144","(206) 827-4406",-122.3145023008,47.5811939788,"PR0029329",1
"20197","BEACON HILL ELEMENTARY SCHOOL","School Lunch Program - Risk II","2025 14TH AVE S","Seattle","98144","",-122.3151048388,47.5854691954,"PR0002361",NA
"20230","BEACON HILL FOODS","Grocery Store-no seating - Risk Category I","4347 15TH AVE S","Seattle","98108","(206) 763-0130",-122.3137406999,47.5639715958,"PR0002359",NA
"20239","BEACON HILL NUTRITION","Seating 0-12 - Risk Category II","2523 15TH AVE S","SEATTLE","98144","(206) 474-5251",-122.31380771,47.58025254,"PR0088494",1
"20243","BEAN & BAGEL","Seating 0-12 - Risk Category II","1410 NE 40TH ST","SEATTLE","98105","(303) 507-1025",-122.3128198068,47.6554776586,"PR0031971",1
"20251","BEAN, THE","Mobile Food Unit - Risk Category I","2103 SW 152ND ST ","SEATTLE","98166","",-122.3608772017,47.4665279098,"PR0031243",NA
"20278","BEANFISH LLC","Seating 0-12 - Risk Category III","517 S Weller ST","Seattle","98104","(206) 790-7656",-122.32705436,47.59735284,"PR0090086",1
"20374","BEARD PAPA'S","Bakery-no seating - Risk Category II","600 5TH AVE S 505","SEATTLE","98104","(425) 802-7122",-122.3271761779,47.5968200124,"PR0077636",NA
"20433","BEAST & CLEAVER","Meat/Sea Food - Risk Category III","2362 NW 80TH ST","SEATTLE","98117","(206) 488-2662",-122.38725779,47.68696399,"PR0088593",NA
"20438","BEASTRO #559.01","Seating 51-150 - Risk Category III","3400 STONE WAY N FL 5","SEATTLE","98103","(650) 592-3800",-122.34230353,47.64879163,"PR0084166",1
"20493","BEBAS & AMIGOS","Seating 51-150 - Risk Category III","700 5TH AVE","SEATTLE","98104","(206) 622-7085",-122.329880719,47.6050073748,"PR0026380",1
"20650","BEBOP WAFFLE SHOP","Seating 13-50 - Risk Category III","2600 CALIFORNIA AVE SW","SEATTLE","98116","(206) 713-7013",-122.38624292,47.58099412,"PR0083781",1
"20682","BEDHEAD COFFEE","Limited Food Services - no permanent plumbing","1513 SW HOLDEN ST","SEATTLE","98106","(206) 430-8873",-122.35467303,47.53344858,"PR0086423",NA
"20684","BEECHER'S","Seating 0-12 - Risk Category III","17801 INTERNATIONAL BL NS-08","Seattle","98158","(703) 723-7264",-122.302146,47.443015,"PR0090404",1
"20716","BEECHER'S HANDMADE CHEESE","Seating 0-12 - Risk Category III","1600 PIKE PL ","SEATTLE","98101","",-122.3417736907,47.6096273369,"PR0069597",1
"20771","BEECHERS ANNEX","Limited Food Services - no permanent plumbing","17801 INTERNATIONAL BL CONC C","SEATTLE","98158","(404) 290-7697",-122.30342,47.4448,"PR0089241",NA
"20810","BEER & WINE SOURCE","Seating 0-12 - Risk Category II","9601 16TH AVE SW","SEATTLE","98106","(206) 939-9093",-122.3553384,47.51720866,"PR0086169",1
"20823","BEER AUTHORITY, LLC","Seating 13-50 - Risk Category I","12720 LAKE CITY WAY NE","SEATTLE","98125","(206) 417-9629",-122.29334859,47.72192934,"PR0082793",1
"20834","BEER STAR USA","Seating 51-150 - Risk Category I","9801 16TH AVE SW","SEATTLE","98106","(206) 453-3088",-122.35537529,47.51540498,"PR0090079",1
"20903","BELL FLOWER CHOCOLATE COMPANY","Seating 0-12 - Risk Category II","1934 4TH AVE W","SEATTLE","98119","(206) 718-1871",-122.36191624,47.63697019,"PR0087138",2
"20908","BELL HARBOR INT CONFERENCE CTR","Seating 151-250 - Risk Category III","2211 ALASKAN WAY","Seattle","98121","(206) 441-6666",-122.3491241261,47.611096175,"PR0040182",1
"21087","BELLA M' BRIANA","Mobile Food Unit - Risk Category III","3223 NW 3RD AVE S","SEATTLE","98134","(206) 698-5765",-122.38700242,47.66839033,"PR0082256",NA
"21151","BELLE EPICUREAN","Seating 13-50 - Risk Category III","3109 E MADISON ST","SEATTLE","98112","(206) 895-2696",-122.29198712,47.62602871,"PR0081534",2
"21673","BELLTOWN GROCERY","Seating 0-12 - Risk Category III","2221 3RD AVE","SEATTLE","98121","(206) 441-0220",-122.3444745285,47.6141916896,"PR0021550",2
"21674","BELLTOWN LIMONCELLO","Seating 13-50 - Risk Category II","2326 1ST AVE","SEATTLE","98121","(206) 492-0522",-122.3472389239,47.6139890731,"PR0054639",1
"21677","BELLTOWN MARKET, INC","Seating 0-12 - Risk Category II","2424 1ST AVE ","Seattle","98121","(206) 443-9433",-122.3483972804,47.6147228923,"PR0032457",1
"21685","BELLTOWN PIZZA","Seating 13-50 - Risk Category III","2422 1ST AVE ","SEATTLE","98121","",-122.3482595714,47.6145999386,"PR0032831",1
"21689","BELMONT LOUNGE, THE","Seating 0-12 - Risk Category II","518 E PIKE ST","SEATTLE","98122","(425) 283-9085",-122.3246558,47.61425464,"PR0085532",1
"21695","BELTOWN PROVISIONS","Seating 51-150 - Risk Category III","2137 2ND AVE ","SEATTLE","98121","(949) 500-3988",-122.3437009386,47.6126668242,"PR0064084",1
"21773","BEN & JERRY'S GREENLAKE","Seating 0-12 - Risk Category II","7900 E GREENLAKE DR N #104","Seattle","98103","(360) 402-4171",-122.3367423266,47.6857775457,"PR0048759",1
"21810","BEN PARIS @ STATE HOTEL","Seating 51-150 - Risk Category III","1501 2ND AVE","SEATTLE","98101","(206) 214-5519",-122.33931,47.60947,"PR0088183",2
"21815","BENAROYA HONOR COFFEE LLC","Seating 0-12 - Risk Category II","200 UNIVERSITY ST","SEATTLE","98101","(425) 295-8786",-122.3371812922,47.6074529282,"PR0053170",1
"21816","BENBOW ROOM","Seating 51-150 - Risk Category III","4210 SW ADMIRAL WAY #A","SEATTLE","98116","(212) 203-1371",-122.38568292,47.58146039,"PR0079958",NA
"21817","BENGAL TIGER EAST INDIAN CUISINE","Seating 51-150 - Risk Category III","6509 ROOSEVELT WAY NE","SEATTLE","98115","(206) 985-0041",-122.31764926,47.67614822,"PR0081359",3
"21882","Beni Pizza & Pho","Seating 0-12 - Risk Category III","10325 Aurora AVE N","SEATTLE","98133","",-122.34506706,47.70407742,"PR0090369",NA
"22135","BENT BURGERS","Seating 13-50 - Risk Category III","5100 S DAWSON ST #100","SEATTLE","98118","(206) 384-9742",-122.2696114225,47.5550752924,"PR0055340",1
"22209","BENTO WORLD","Seating 0-12 - Risk Category III","306 LENORA ST","Seattle","98121","(425) 787-8625",-122.3420456679,47.6134811197,"PR0018266",1
"22253","BENTOFUL","Seating 13-50 - Risk Category III","501 FAIRVIEW AVE N","SEATTLE","98109","(206) 370-0211",-122.3345689,47.62333729,"PR0086872",1
"22255","BERLINER DONER KEBAB","Seating 0-12 - Risk Category III","428 WESTLAKE AVE N #101","SEATTLE","98109","(206) 235-7989",-122.3379919596,47.6228879968,"PR0078059",2
"22320","BERT'S MARKETS INC","Meat/Sea Food - Risk Category III","1801 41ST AVE E ","Seattle","98112","(206) 322-1330",-122.279864708,47.6347231638,"PR0007318",NA
"22512","BEST CORN #1","Mobile Food Unit - Risk Category I","9811 15th AVE SW","SEATTLE","98146","(253) 226-0543",-122.3542315059,47.515381328,"PR0076850",NA
"22538","BEST OF HANDS BARRELLHOUSE LLC","Seating 51-150 - Risk Category II","7500 35TH AVE SW","SEATTLE","98126","(206) 335-2739",-122.3760131158,47.5354159879,"PR0003048",1
"22570","BEST WESTERN AIRPORT EXECUTEL","Seating 51-150 - Risk Category III","20717 INTERNATIONAL BL ","Seattle","98198","(206) 878-3300",-122.2977787064,47.4159759138,"PR0008985",1
"22707","BETA THETA PI","Seating 51-150 - Risk Category III","1617 NE 47TH ST","Seattle","98105","",-122.3100659758,47.6628850947,"PR0001132",1
"22771","BETHANY COMMUNITY CHURCH","Non-Profit Institution - Risk Category III","1147 N 81ST ST","SEATTLE","98103","(206) 524-9000",-122.3423378367,47.6874459613,"PR0086410",NA
"22779","BETHANY PRESBYTERIAN","Non-Profit Institution - Risk Category III","1818 QUEEN ANNE AVE N ","Seattle","98109","(206) 774-4701",-122.3566647513,47.6353797031,"PR0040060",NA
"22849","BETSUTENJIN RAMEN","Seating 13-50 - Risk Category III","954 E UNION ST STE 102","SEATTLE","98122","(206) 922-9246",-122.3198027,47.61324356,"PR0086886",1
"22863","BETTER MEAT INC","Grocery Store-no seating - Risk Category II","305 NW 82ND ST","SEATTLE","98117","(206) 783-0570",-122.3609993973,47.6881735818,"PR0007319",NA
"22892","BETTY","Seating 51-150 - Risk Category III","1507 QUEEN ANNE AVE N ","SEATTLE","98109","(206) 368-5460",-122.3572422278,47.6327260556,"PR0072271",2
"22969","BEVERIDGE PLACE PUB","Seating 51-150 - Risk Category I","6413 CALIFORNIA AVE SW","SEATTLE","98136","",-122.38755056,47.54544782,"PR0081820",1
"22979","BEVERLY PARK AT GLENDALE","School Lunch Program - Risk II","1201 S 104TH ST ","Seattle","98168","(206) 433-2561",-122.3174316122,47.5094375392,"PR0017962",NA
"23019","BEVMO","Seating 0-12 - Risk Category I","850 NW 45TH ST","SEATTLE","98107","(925) 609-6153",-122.367941,47.661745,"PR0082927",1
"23055","BEYOND THE BOWL","Seating 13-50 - Risk Category III","12518 LAKE CITY WAY NE","SEATTLE","98125","(206) 201-4400",-122.29466518,47.71977891,"PR0084918",2
"23101","BIANG BIANG NOODLES","Seating 51-150 - Risk Category III","601 E PIKE ST STE 100","SEATTLE","98122","(206) 809-8999",-122.32422,47.61397,"PR0088296",1
"23107","BICKERSONS BREWHOUSE","Seating 151-250 - Risk Category I","1514 NW LEARY WAY","SEATTLE","98107","(425) 442-2347",-122.37703004,47.66391116,"PR0086715",1
"23140","BIG BANG SATAY","Seating 13-50 - Risk Category III","8317 GREENWOOD AVE N","SEATTLE","98103","",-122.35565383,47.68964467,"PR0086587",1
"23336","BIG JOHN'S PFI","Grocery Store-no seating - Risk Category II","1608 S DEARBORN ST","SEATTLE","98144","(206) 682-2740",-122.31111891,47.59600999,"PR0088954",NA
"23370","BIG MARIO'S NEW YORK STYLE PIZZA","Seating 13-50 - Risk Category III","1011 E PIKE ST","SEATTLE","98122","",-122.31902466,47.61395004,"PR0080407",2
"23437","BIG MARIO'S NY STYLE PIZZA","Seating 13-50 - Risk Category III","4350 LEARY WAY NW","SEATTLE","98107","(206) 919-5820",-122.36566173,47.66017739,"PR0083678",1
"23447","BIG MARIOS 2","Seating 13-50 - Risk Category III","815 5TH AVE N ","SEATTLE","98109","(206) 388-2995",-122.3476942132,47.6268653541,"PR0046756",1
"23458","BIG MAX BURGER CO.","Seating 13-50 - Risk Category II","1935 QUEEN ANNE AVE N","SEATTLE","98109","(360) 670-9701",-122.357086,47.636907,"PR0083523",1
"23539","BIG TIME BREWING CO","Seating 51-150 - Risk Category III","4133 UNIVERSITY WAY NE ","Seattle","98105","(206) 545-4509",-122.3135427158,47.6578432906,"PR0019272",1
"23562","BIG TUNA","Seating 0-12 - Risk Category III","4336 ROOSEVELT WAY NE #B","Seattle","98105","(408) 834-3424",-122.3173754988,47.6610547396,"PR0014666",1
"23601","Bike Hub","Seating 51-150 - Risk Category II","115 S JACKSON ST","Seattle","98104","(415) 272-8094",-122.33338,47.59896,"PR0090411",NA
"23602","BILAAL MINI MARKET LLC","Meat/Sea Food - Risk Category III","5041 RAINIER AVE S STE 104","SEATTLE","98118","(206) 722-2184",-122.28409286,47.55598493,"PR0081481",NA
"23642","BILLIARD HOANG/POOL HALL","Seating 13-50 - Risk Category III","3220 S HUDSON ST","Seattle","98118","",-122.2901509326,47.5573075853,"PR0017672",2
"23803","BILLY BEACH SUSHI & BAR","Seating 13-50 - Risk Category III","5463 LEARY AVE NW","SEATTLE","98107","(425) 890-6987",-122.38434693,47.6681695,"PR0081007",2
"23908","BIRCH","Seating 13-50 - Risk Category III","1001 FAIRVIEW AVE N STE 2250","SEATTLE","98109","(206) 774-1948",-122.33172694,47.62902129,"PR0084983",1
"23952","BISCUIT & BEAN","Seating 0-12 - Risk Category III","608 N 105th ST","SEATTLE","98133","(206) 240-6267",-122.3508476,47.70535013,"PR0088384",1
"23956","BISCUIT BITCH","Seating 13-50 - Risk Category III","2303 3RD AVE","SEATTLE","98121","(206) 462-6236",-122.34518173,47.61466407,"PR0079513",1
"23966","BISCUIT BITCH INC","Caterer - Risk Category III","3201 4th AVE S STE B","SEATTLE","98134","(206) 941-4444",-122.32950082,47.57527979,"PR0090292",NA
"23967","BISCUIT BITCH PIKE PLACE","Seating 0-12 - Risk Category III","1909 1ST AVE ","Seattle","98101","(206) 941-4444",-122.3416754735,47.6103415226,"PR0054753",2
"24006","BISTRO TURKUAZ","Seating 0-12 - Risk Category III","1114 34TH AVE ","SEATTLE","98122","(206) 327-8555",-122.2891612288,47.6121467996,"PR0076202",2
"24025","BITE SQUARE","Seating 0-12 - Risk Category III","2013 3RD AVE","SEATTLE","98121","(740) 590-9739",-122.34157535,47.61255839,"PR0087693",2
"24035","BITES OF BANGKOK","Seating 51-150 - Risk Category III","340 15TH AVE E STE 201","SEATTLE","98112","(206) 268-0823",-122.31237544,47.62164297,"PR0084552",2
"24038","BITTERROOT SEATTLE","Seating 51-150 - Risk Category III","5239 BALLARD AVE NW","SEATTLE","98107","(206) 920-4196",-122.3833525,47.66617708,"PR0081878",1
"24075","BIZARRE BREWING, LLC","Seating 51-150 - Risk Category I","4441 26th AVE W STE A","SEATTLE","98199","(812) 679-7316",-122.39029902,47.6605844,"PR0090575",NA
"24076","BIZZARRO ITALIAN CAFE","Seating 13-50 - Risk Category III","1307 N 46TH ST ","Seattle","98103","(206) 290-7585",-122.341711162,47.661967251,"PR0016024",1
"24081","BIZZARRO ITALIAN CAFE","Seating 51-150 - Risk Category III","9635 16TH AVE SW","SEATTLE","98106","(206) 669-5699",-122.35542184,47.51619935,"PR0085034",1
"24320","BLACK BOTTLE","Seating 13-50 - Risk Category III","2600 1ST AVE ","Seattle","98121","(206) 441-7714",-122.3497053726,47.615459011,"PR0002382",1
"24400","BLACK CAT","Seating 13-50 - Risk Category III","2130 1ST AVE","SEATTLE","98121","(619) 315-3283",-122.3447480595,47.6125608255,"PR0049504",1
"24571","Black Magic Sweets","Bakery-no seating - Risk Category II","2822 M L KING JR WAY S","SEATTLE","98144","",-122.3160317,47.59781139,"PR0088853",NA
"24723","BLACK SHEEP CATERING NW INC","Caterer - Risk Category III","10256 16TH AVE SW","SEATTLE","98146","(206) 391-2860",-122.3546868,47.51023065,"PR0090435",NA
"24730","BLAINE MEMORIAL UNITED METHODIST","Non-Profit Institution - Risk Category III","3001 24TH AVE S ","SEATTLE","98144","",-122.3019089572,47.576474304,"PR0066445",NA
"24766","BLANCHET HIGH SCHOOL KITC","Non-Profit Institution - Risk Category III","8200 WALLINGFORD AVE N ","Seattle","98103","(206) 527-7720",-122.3364228422,47.6887540119,"PR0001139",NA
"24805","BLANK SPACE CAFE","Seating 13-50 - Risk Category II","2126 2ND AVE","SEATTLE","98121","(206) 448-2617",-122.34381381,47.61326054,"PR0086614",1
"24822","BLARNEY STONE PUB","Seating 51-150 - Risk Category III","1416 1ST AVE","SEATTLE","98101","(206) 448-8439",-122.33927333,47.60837014,"PR0083875",2
"24854","BLAZING BAGELS","Seating 0-12 - Risk Category II","1911 1ST AVE S #C","SEATTLE","98134","(425) 883-1550",-122.334854,47.585599,"PR0082893",1
"24859","BLAZING BAGELS","Seating 13-50 - Risk Category III","2510 NE BLAKELEY ST","SEATTLE","98105","(425) 883-1550",-122.29996412,47.6665347,"PR0088730",1
"24961","BLEACHERS PUB","Seating 51-150 - Risk Category III","8560 GREENWOOD AVE N","SEATTLE","98103","(206) 334-6036",-122.35493,47.691791,"PR0083519",1
"24971","BLENDED COFFEE AND JUICE BAR","Seating 13-50 - Risk Category II","229 QUEEN ANNE AVE N","SEATTLE","98109","(314) 486-1159",-122.35701403,47.62072151,"PR0088947",2
"24975","BLESSINGS FROM MY HEART TO YOUR TABLE","Caterer - Risk Category III","4634 E MARGINAL WAY S","SEATTLE","98134","(253) 321-7373",-122.25652555,47.45128752,"PR0089055",NA
"24983","Bloom Cafe","Seating 13-50 - Risk Category III","1808 MINOR AVE","SEATTLE","98101","(206) 651-3683",-122.33073499,47.61711629,"PR0090222",1
"25020","BLOTTO","Seating 13-50 - Risk Category III","1830 12TH AVE ","SEATTLE","98122","(360) 739-4739",-122.3166753643,47.6185842569,"PR0071145",1
"25041","BLUE GLASS","Seating 13-50 - Risk Category III","704 NW 65TH ST ","SEATTLE","98117","(907) 244-1012",-122.3649200288,47.6761071584,"PR0077040",1
"25043","BLUE HERON CAFE INC.","Seating 0-12 - Risk Category III","4001 GILMAN AVE W ","Seattle","98199","",-122.3870877191,47.6559563847,"PR0008030",2
"25158","BLUE MOON BURGERS","Seating 13-50 - Risk Category III","2504 ALKI AVE SW","SEATTLE","98116","(206) 295-8534",-122.40548053,47.58090456,"PR0084682",1
"25177","BLUE MOON, THE","Seating 51-150 - Risk Category I","712 NE 45TH ST","SEATTLE","98105","(206) 675-9116",-122.3199019434,47.6614935072,"PR0001144",1
"25178","BLUE NILE RESTAURANT","Seating 13-50 - Risk Category III","7821 RAINIER AVE S","SEATTLE","98118","(206) 271-6109",-122.27059696,47.53195756,"PR0089230",2
"25190","BLUE RIBBON COOKING, LLC","Caterer - Risk Category III","2501 FAIRVIEW AVE E ","SEATTLE","98102","",-122.3298209741,47.6421819278,"PR0019826",NA
"25218","BLUE SAUCER CAFE","Seating 13-50 - Risk Category III","9127 ROOSEVELT WAY NE ","SEATTLE","98115","(206) 453-4955",-122.3178816442,47.6957290852,"PR0072297",1
"25223","BLUE WATER BURRITO","Seating 13-50 - Risk Category III","515 QUEEN ANNE AVE ","Seattle","98109","(206) 285-7229",-122.3482163738,47.6430719868,"PR0053678",1
"25267","BLUE WATER BURRITO CO","Seating 0-12 - Risk Category III","1000 2ND AVE ","SEATTLE","98104","(206) 285-7229",-122.3351128313,47.6056600537,"PR0015634",1
"25347","BLUE WATER TACO GRILL","Seating 13-50 - Risk Category III","2962 1ST AVE S ","SEATTLE","98134","(206) 621-0393",-122.3337716942,47.575826517,"PR0071304",2
"25348","BLUE WATER TACO GRILL","Seating 13-50 - Risk Category III","1213 MADISON ST ","SEATTLE","98104","(206) 579-4866",-122.3233772128,47.6097454708,"PR0069811",1
"25353","BLUE WATER TACO GRILL","Seating 13-50 - Risk Category III","515 Union ST ","SEATTLE","98101","(206) 879-4866",-122.33381798,47.60978773,"PR0079786",2
"25495","BLUEBILL CAFE @ GOOGLE - ANCHOR CAFE - LEVEL 1","Seating 51-150 - Risk Category III","609 FAIRVIEW AVE N","SEATTLE","98109","(206) 940-2991",-122.33469239,47.62514901,"PR0088796",1
"25496","BLUEBIRD ICE CREAM","Seating 13-50 - Risk Category II","7415 GREENWOOD AVE N","SEATTLE","98103","(612) 799-5965",-122.35558322,47.68302453,"PR0085668",3
"25497","BLUEBIRD ICE CREAM","Seating 0-12 - Risk Category I","420 S MASSACHUSETTS ST","SEATTLE","98134","(518) 232-0202",-122.32816066,47.58854381,"PR0085566",1
"25512","BLUWATER LESCHI","Seating 151-250 - Risk Category III","102 LAKESIDE AVE S ","SEATTLE","98122","(206) 328-2233",-122.2849328548,47.601680322,"PR0003206",1
"25665","BOAT HOUSE DELI","Seating 13-50 - Risk Category III","1818 WESTLAKE AVE N ","Seattle","98109","(206) 283-5042",-122.3398589655,47.6353512257,"PR0002667",1
"25782","BOB'S QUALITY MEATS","Meat/Sea Food - Risk Category III","4861 RAINIER AVE S ","Seattle","98118","(206) 725-1221",-122.2855301166,47.5583146563,"PR0010483",NA
"25856","BOBA SMOOTHIES","Seating 13-50 - Risk Category III","1409 UNIVERSITY WAY NE","SEATTLE","98105","(425) 214-1267",-122.31296,47.66115,"PR0088807",2
"25888","BOBA UP","Seating 51-150 - Risk Category III","4141 UNIVERSITY WAY NE #103","SEATTLE","98105","(206) 547-8800",-122.31354275,47.65807388,"PR0085442",1
"25905","BOBALUST","Seating 13-50 - Risk Category III","4553 UNIVERSITY WAY NE ","Seattle","98105","(206) 218-2891",-122.3134371043,47.662792593,"PR0052459",1
"25933","BOCA PIZZERIA","Seating 51-150 - Risk Category III","426 BROADWAY AVE E ","Seattle","98102","(206) 330-1464",-122.3206679316,47.6223085756,"PR0011103",3
"25941","BOCA RESTOBAR","Seating 51-150 - Risk Category III","416 BROADWAY AVE E","SEATTLE","98102","(206) 328-7817",-122.3206665439,47.622221033,"PR0080421",2
"25980","BOEING 3-800 CAFE","Seating > 250 - Risk Category III","7500 E MARGINAL WAY S","SEATTLE","98108","(425) 237-4222",-122.313665,47.536582,"PR0086516",1
"25988","BOEING CO","Seating > 250 - Risk Category III","9725 E MARGINAL WAY S ","SEATTLE","98108","(206) 393-8404",-122.301997,47.514636,"PR0083239",1
"26224","BOEING COMPANY PLANT II / PLAZA 99","Seating 51-150 - Risk Category III","2 122 IASL BLDG","SEATTLE","98108","",-122.317776,47.534883,"PR0071112",1
"26308","BOEING FIELD CHEVRON","Seating 0-12 - Risk Category III","10805 E MARGINAL WAY S ","Seattle","98168","(206) 451-1232",-122.2909395588,47.5062383135,"PR0045776",1
"26364","BOEING IMAX CONCESSION STAND","Non-Profit Institution - Risk Category I","200 2ND AVE N ","Seattle","98109","",-122.3513691311,47.619438027,"PR0031529",NA
"26498","BOILING POINT RESTAURANT INC","Seating 51-150 - Risk Category III","610 5TH AVE S #1","SEATTLE","98104","(626) 551-5181",-122.32745743,47.59683886,"PR0083388",1
"26506","BOILING POINT RESTAURANT WA INC","Seating 0-12 - Risk Category III","1001 S MYRTLE ST","SEATTLE","98108","(425) 435-4805",-122.320202,47.539199,"PR0083963",1
"26676","BOK A BOK CHICKEN/NEUMO'S","Seating > 250 - Risk Category III","925 E PIKE ST ","Seattle","98122","(206) 583-0303",-122.3197791105,47.6138475065,"PR0033217",1
