"","NAME","PROGRAM.IDENTIFIER","INSPECTION.DATE","DESCRIPTION","ADDRESS","CITY","ZIP.CODE","PHONE","LONGITUDE","LATITUDE","INSPECTION.BUSINESS.NAME","INSPECTION.TYPE","INSPECTION.SCORE","INSPECTION.RESULT","INSPECTION.CLOSED.BUSINESS","VIOLATION.TYPE","VIOLATION.DESCRIPTION","VIOLATION.POINTS","BUSINESS_ID","INSPECTION_SERIAL_NUM","VIOLATION_RECORD_ID","GRADE"
"1","#807 TUTTA BELLA","#807 TUTTA BELLA","08/31/2022","Seating 0-12 - Risk Category III","2746 NE 45TH ST","SEATTLE","98105","(206) 722-6400",-122.29641473,47.66231092,"#807 TUTTA BELLA","Routine Inspection/Field Review",10,"Unsatisfactory","false","BLUE","3200 - Insects, rodents, animals not present; entrance controlled.",5,"PR0089260","DAEEWQC0L","IVQ7QYW2V",1
"5","+MAS CAFE","+MAS CAFE","07/13/2022","Seating 0-12 - Risk Category III","1906 N 34TH ST ","SEATTLE","98103","(206) 491-4694",-122.3345870767,47.6481803613,"+MAS CAFE","Return Inspection",0,"Satisfactory","false","","",0,"PR0046367","DATSWIPUS","",2
"13","?al?al Cafe","?al?al Cafe","","Seating 13-50 - Risk Category III","122 2ND AVE S","SEATTLE","98104","(952) 649-8629",-122.33134,47.60141,"","",NA,"","","","",0,"PR0090156","","",NA
"14","100 LB CLAM","100 LB CLAM","07/13/2022","Seating 0-12 - Risk Category III","1001 FAIRVIEW AVE N Unit 1700A","SEATTLE","98109","(206) 369-2978",-122.33172694,47.62902129,"100 LB CLAM","Consultation/Education - Field",0,"Complete","false","","",0,"PR0085848","DA5SXOHAS","",2
"29","1000 SPIRITS","1000 SPIRITS","09/08/2022","Seating 51-150 - Risk Category III","1225 1ST AVE","SEATTLE","98101","(206) 612-2660",-122.33822298,47.60653938,"1000 SPIRITS","Routine Inspection/Field Review",5,"Unsatisfactory","false","RED","2120 - Proper cold holding temperatures ( 42 degrees F to 45 degrees F)",5,"PR0082813","DAQBVS0O9","IVKNCGWZ9",1
"160","125TH ST GRILL","125TH ST GRILL","07/19/2022","Seating 51-150 - Risk Category III","12255 AURORA AVE N ","Seattle","98133","(206) 363-8950",-122.3453076813,47.7193154511,"125TH ST GRILL","Routine Inspection/Field Review",20,"Unsatisfactory","false","BLUE","3400 - Wiping cloths properly used, stored, proper sanitizer",5,"PR0010573","DAKUD3YPZ","IVYOKB62S",1
"195","13 COINS","13 COINS","11/07/2022","Seating 51-150 - Risk Category III","18000 PACIFIC HWY S ","SEATTLE","98188","(206) 243-9500",-122.2957679697,47.4415898055,"13 COINS","Routine Inspection/Field Review",15,"Unsatisfactory","false","BLUE","4100 - Warewashing facilities properly installed, maintained, used;",5,"PR0004264","DAY86NXGX","IVBGAIBPW",1
"285","13 COINS RESTAURANT","13 COINS RESTAURANT","09/14/2022","Seating 151-250 - Risk Category III","255 S KING ST","SEATTLE","98104","(206) 382-1313",-122.3310251,47.59788682,"13 COINS RESTAURANT","Consultation/Education - Field",0,"Complete","false","","",0,"PR0087276","DAS3NQZNX","",1
"296","14 CARROT CAFE","14 CARROT CAFE","07/18/2022","Seating 51-150 - Risk Category III","2305 EASTLAKE AVE E ","SEATTLE","98102","(206) 324-1442",-122.3261014499,47.6398598066,"14 CARROT CAFE","Routine Inspection/Field Review",10,"Unsatisfactory","false","BLUE","3400 - Wiping cloths properly used, stored, proper sanitizer",5,"PR0003061","DAF9GBP69","IVKM0MOY0",1
"357","1899 GROVE @ WOODLAND PARK ZOO","1899 GROVE @ WOODLAND PARK ZOO","10/21/2020","Seating 0-12 - Risk Category III","5500 PHINNEY AVE N","SEATTLE","98103","(206) 545-2042",-122.35094691,47.66842021,"1899 GROVE @ WOODLAND PARK ZOO","Routine Inspection/Field Review",0,"Satisfactory","false","","",0,"PR0089019","DABHSXHJ7","",1
"358","19 GOLD","19 GOLD","10/07/2022","Seating 13-50 - Risk Category III","3601 FREMONT AVE N STE 101","SEATTLE","98103","(206) 883-6870",-122.35031342,47.65169662,"19 GOLD","Routine Inspection/Field Review",13,"Unsatisfactory","false","BLUE","3600 - Proper eating, tasting, drinking, or tobacco use",3,"PR0088266","DAZLWF77F","IVPTHNWM3",1
"366","1ST UNION STORE","1ST UNION STORE","09/08/2022","Grocery Store-no seating - Risk Category I","7729 RAINIER AVE S","SEATTLE","98118","(206) 721-1980",-122.2703260457,47.532773334,"1ST UNION STORE","Routine Inspection/Field Review",0,"Satisfactory","false","","",0,"PR0078086","DAQHGEHRN","",NA
"368","2 FINGERS  SOCIAL","2 FINGERS  SOCIAL","03/02/2022","Seating 13-50 - Risk Category III","9211 DELRIDGE WAY SW","SEATTLE","98106","(702) 302-7083",-122.35831426,47.52059619,"2 FINGERS  SOCIAL","Consultation/Education - Field",0,"Complete","false","","",0,"PR0087100","DA4QFF9VV","",1
"397","20 OZ TEA","20 OZ TEA","08/26/2022","Seating 13-50 - Risk Category III","1823 EASTLAKE AVE E 160","SEATTLE","98102","(206) 355-1491",-122.32591059,47.63568728,"20 OZ TEA","Routine Inspection/Field Review",15,"Unsatisfactory","false","RED","0200 - Food Worker Cards current for all food workers; new food workers trained",5,"PR0087143","DAWE1UOQA","IV4T6CDZL",1
"408","203 DEGREES FAHRENHEIT CORP","203 DEGREES FAHRENHEIT CORP","11/21/2022","Seating 13-50 - Risk Category II","610 TERRY AVE N STE 170","SEATTLE","98109","(206) 227-4293",-122.33683306,47.62529931,"203 DEGREES FAHRENHEIT CORP","Routine Inspection/Field Review",0,"Satisfactory","false","","",0,"PR0090075","DAXLYX3IX","",1
"409","206 BURGER","206 BURGER","05/10/2022","Seating 13-50 - Risk Category III","1329 N 45TH ST STE 109","SEATTLE","98103","(206) 805-9222",-122.34093,47.6612,"206 BURGER","Routine Inspection/Field Review",0,"Satisfactory","false","","",0,"PR0087881","DALQ83EJA","",1
"410","206 BURGER COMPANY","206 BURGER COMPANY","05/26/2022","Seating 13-50 - Risk Category III","101 NICKERSON ST STE A","SEATTLE","98109","(206) 661-2320",-122.3552638709,47.6483705082,"206 BURGER COMPANY","Routine Inspection/Field Review",0,"Satisfactory","false","","",0,"PR0077121","DA0EHQYTU","",1
"411","206 BURGER COMPANY","206 BURGER COMPANY","05/19/2022","Seating 13-50 - Risk Category III","1000 MADISON ST","SEATTLE","98104","(206) 735-7069",-122.3261480986,47.6090551634,"206 BURGER COMPANY","Routine Inspection/Field Review",10,"Unsatisfactory","false","RED","2110 - Proper cold holding temperatures (greater than  45 degrees F)",10,"PR0033707","DADZLYS0F","IVD1J0K67",1
"420","206 MINI MART LLC","206 MINI MART LLC","08/15/2022","Grocery Store-no seating - Risk Category I","8738 RAINIER AVE S ","SEATTLE","98118","(206) 334-3876",-122.2697464571,47.5241785016,"206 MINI MART LLC","Routine Inspection/Field Review",5,"Satisfactory","false","BLUE","3300 - Potential food contamination prevented during delivery,  preparation, storage, display",5,"PR0076125","DADJVZTSL","IVW5QC00B",NA
"442","2120","2120","06/07/2022","Seating 51-150 - Risk Category III","2120 6TH AVE","SEATTLE","98121","(206) 829-8700",-122.34014335,47.61577714,"2120","Consultation/Education - Field",0,"Complete","false","","",0,"PR0086799","DANNYXDTB","",1
"512","23RD & CHERRY FELLOWSHIP HALL","23RD & CHERRY FELLOWSHIP HALL","03/09/2022","Seating 13-50 - Risk Category III","2701 E CHERRY ST ","SEATTLE","98122","(206) 325-4388",-122.297552399,47.6077428096,"23RD & CHERRY FELLOWSHIP HALL","Routine Inspection/Field Review",10,"Unsatisfactory","false","BLUE","4200 - Food-contact surfaces maintained, clean, sanitized",5,"PR0069504","DAGQA8UTK","IVNHFD3QM",1
"531","24/7 CONVENIENCE STORE","24/7 CONVENIENCE STORE","09/27/2022","Grocery Store-no seating - Risk Category I","11851 GLENDALE WAY S","SEATTLE","98168","(206) 841-6123",-122.31118,47.496095,"24/7 CONVENIENCE STORE","Routine Inspection/Field Review",0,"Satisfactory","false","","",0,"PR0082552","DASYC3YL9","",NA
"536","2C THAIBISTRO & SPIRITS","2C THAIBISTRO & SPIRITS","05/26/2022","Seating 13-50 - Risk Category III","12506 LAKE CITY WAY NE","SEATTLE","98125","(425) 786-7169",-122.29474176,47.71955074,"2C THAIBISTRO & SPIRITS","Routine Inspection/Field Review",15,"Unsatisfactory","false","BLUE","3400 - Wiping cloths properly used, stored, proper sanitizer",5,"PR0084895","DAV5YDY2A","IV8IXK7RD",1
"552","2ND AVE GROCERY","2ND AVE GROCERY","11/18/2022","Grocery Store-no seating - Risk Category I","2237 2ND AVE ","SEATTLE","98121","(206) 306-5773",-122.3456321143,47.6137836656,"2ND AVE GROCERY","Routine Inspection/Field Review",0,"Satisfactory","false","","",0,"PR0071985","DAJUBTJPS","",NA
"555","3 BROS PIZZA CO","3 BROS PIZZA CO","","Caterer - Risk Category II","5604 DELRIDGE WAY SW","SEATTLE","98106","(509) 881-5675",-122.36272383,47.55166955,"","",NA,"","","","",0,"PR0090517","","",NA
"556","314 PIE","314 PIE","05/10/2021","Mobile Food Unit - Risk Category III","801 26TH AVE E","SEATTLE","98112","(512) 304-3590",-122.36272184,47.55167133,"314 PIE","Consultation/Education - Field",0,"Complete","false","","",0,"PR0082603","DAZZW14KY","",NA
"568","3RD AVE CAFE","3RD AVE CAFE","10/24/2019","Seating 13-50 - Risk Category III","1908 3RD AVE ","Seattle","98101","(206) 622-7778",-122.3399331044,47.6120226711,"3RD AVE CAFE","Routine Inspection/Field Review",10,"Unsatisfactory","false","RED","2110 - Proper cold holding temperatures (greater than  45 degrees F)",10,"PR0002550","DA8AAARIS","IV4UHTKOF",1
"638","411 WINE LOUNGE- GRAMERCY","411 WINE LOUNGE- GRAMERCY","09/28/2022","Seating 13-50 - Risk Category II","411 1ST AVE S 104","SEATTLE","98104","(206) 553-9003",-122.334597936,47.5986010403,"411 WINE LOUNGE- GRAMERCY","Routine Inspection/Field Review",0,"Satisfactory","false","","",0,"PR0026367","DAJRTZAUO","",1
"640","45 STOP-N-GO & SUSHI DELI","45 STOP-N-GO & SUSHI DELI","09/02/2022","Seating 0-12 - Risk Category III","2323 N 45TH ST ","SEATTLE","98103","(206) 678-2270",-122.330453209,47.661259264,"45 STOP-N-GO & SUSHI DELI","Routine Inspection/Field Review",0,"Satisfactory","false","","",0,"PR0012005","DAQKUVSXL","",1
"658","45TH POKE BAR","45TH POKE BAR","08/17/2022","Seating 13-50 - Risk Category II","2121 TERRY AVE #104","SEATTLE","98121","(206) 678-2270",-122.3375087074,47.6182713133,"45TH POKE BAR","Return Inspection",15,"Unsatisfactory","false","RED","2110 - Proper cold holding temperatures (greater than  45 degrees F)",10,"PR0076305","DALLTZDEE","IVPF0VNNI",2
"664","45TH VEGETARIAN THAI","45TH VEGETARIAN THAI","10/03/2022","Seating 13-50 - Risk Category III","1718 N 45TH ST","Seattle","98103","(206) 483-7743",-122.3366551817,47.6615246383,"45TH VEGETARIAN THAI","Routine Inspection/Field Review",0,"Satisfactory","false","","",0,"PR0001414","DAZ4VO19K","",1
"665","4649 RESTAURANT","4649 RESTAURANT","10/21/2022","Seating 13-50 - Risk Category III","1913 N 45TH ST ","Seattle","98103","(206) 547-4649",-122.3344350279,47.6612037129,"4649 RESTAURANT","Routine Inspection/Field Review",15,"Unsatisfactory","false","BLUE","4100 - Warewashing facilities properly installed, maintained, used;",5,"PR0057270","DAKHMR6MF","IVAD6CDDS",1
"694","4B'S TAVERN","4B'S TAVERN","05/17/2022","Seating 51-150 - Risk Category III","4300 LEARY WAY NW ","Seattle","98107","(425) 442-1329",-122.3645210571,47.6591105954,"4B'S TAVERN","Routine Inspection/Field Review",5,"Unsatisfactory","false","RED","1400 - Raw meats below and away from ready to eat food; species separated",5,"PR0001294","DA0DMDCAV","IV80JTBAI",1
"695","5 GUYS SEATTLE BURGERS","5 GUYS SEATTLE BURGERS","01/31/2022","Seating 13-50 - Risk Category III","311 NE 103rd ST","SEATTLE","98125","(801) 859-4448",-122.3242337,47.70292236,"5 GUYS SEATTLE BURGERS","Routine Inspection/Field Review",0,"Satisfactory","false","","",0,"PR0079651","DAIJQF8WK","",1
"724","5 SPOT DINER DELUX","5 SPOT DINER DELUX","08/12/2022","Seating 51-150 - Risk Category III","1502 QUEEN ANNE AVE N ","Seattle","98109","(206) 250-5143",-122.356723964,47.6325265677,"5 SPOT DINER DELUX","Routine Inspection/Field Review",0,"Satisfactory","false","","",0,"PR0023299","DATM04MUI","",1
"730","505 DIMPLES GIFT & SUNDRIES","505 DIMPLES GIFT & SUNDRIES","08/15/2022","Grocery Store-no seating - Risk Category I","505 5TH AVE S 190","SEATTLE","98104","(206) 643-0421",-122.3279141608,47.5982991051,"505 DIMPLES GIFT & SUNDRIES","Routine Inspection/Field Review",0,"Satisfactory","false","","",0,"PR0068164","DAWOBL4XD","",NA
"796","56TH STREET MARKET","56TH STREET MARKET","08/09/2022","Grocery Store-no seating - Risk Category I","2201 N 56TH ST ","SEATTLE","98103","(206) 402-3699",-122.3324480219,47.6685054875,"56TH STREET MARKET","Routine Inspection/Field Review",0,"Satisfactory","false","","",0,"PR0076345","DAFUPZAHC","",NA
"808","65th ST CAFE & RESTAURANT","65th ST CAFE & RESTAURANT","09/21/2022","Seating 13-50 - Risk Category III","301 NE 65TH ST","SEATTLE","98115","(206) 522-5585",-122.325304,47.675805,"65th ST CAFE & RESTAURANT","Routine Inspection/Field Review",7,"Unsatisfactory","false","BLUE","4900 - Adequate ventilation; lighting; designated area...",2,"PR0083321","DAM8E78NX","IV8FDU1RX",1
"813","663 BISTRO","663 BISTRO","03/23/2022","Seating 51-150 - Risk Category III","663 S WELLER ST ","SEATTLE","98104","(206) 349-2544",-122.3244913451,47.5973779763,"663 BISTRO","Routine Inspection/Field Review",43,"Unsatisfactory","false","BLUE","3000 - Proper thawing methods used",3,"PR0048541","DAZQMTCNU","IV59CN1PP",2
"817","7 - ELEVEN #37134A","7 - ELEVEN #37134A","10/18/2022","Seating 0-12 - Risk Category III","5700 M L KING JR WAY S","SEATTLE","98118","(206) 725-8421",-122.287323,47.550965,"7 - ELEVEN #37134A","Consultation/Education - Field",0,"Complete","false","","",0,"PR0084372","DAHU0SILC","",1
"837","7 - ELEVEN #38365A","7 - ELEVEN #38365A","04/21/2022","Seating 0-12 - Risk Category III","4710 UNIVERSITY WAY NE","SEATTLE","98105","(206) 409-5327",-122.31276326,47.66350241,"7 - ELEVEN #38365A","Routine Inspection/Field Review",15,"Unsatisfactory","false","BLUE","3400 - Wiping cloths properly used, stored, proper sanitizer",5,"PR0083074","DAVJBFEU8","IVSZSCL2K",1
"899","7- ELEVEN #23931F","7- ELEVEN #23931F","02/14/2022","Seating 0-12 - Risk Category III","11657 DES MOINES MEMORIAL DR S ","SEATTLE","98168","",-122.3087670109,47.4981739249,"7- ELEVEN #23931F","Routine Inspection/Field Review",0,"Satisfactory","false","","",0,"PR0004275","DACNRDTTX","",1
"912","7-ELEVEN #14368P","7-ELEVEN #14368P","08/12/2022","Seating 0-12 - Risk Category III","1607 QUEEN ANNE AVE N ","SEATTLE","98109","(972) 828-6928",-122.3573732534,47.6338933536,"7-ELEVEN #14368P","Consultation/Education - Field",0,"Complete","false","","",0,"PR0011776","DARZEU6I7","",1
"913","7-ELEVEN #14470B","7-ELEVEN #14470B","04/11/2022","Seating 0-12 - Risk Category III","1600 SW HOLDEN ST ","Seattle","98106","(206) 763-1415",-122.3554136473,47.5340090578,"7-ELEVEN #14470B","Routine Inspection/Field Review",10,"Unsatisfactory","false","BLUE","3400 - Wiping cloths properly used, stored, proper sanitizer",5,"PR0002250","DABCYZ1YM","IVFBXFBPP",1
"921","7-ELEVEN #15525E","7-ELEVEN #15525E","05/05/2022","Seating 0-12 - Risk Category III","3120 S 176TH ST","SEATTLE","98188","(972) 828-6928",-122.2921186302,47.445687087,"7-ELEVEN #15525E","Routine Inspection/Field Review",0,"Satisfactory","false","","",0,"PR0004268","DAXRX5XFI","",1
"922","7-ELEVEN #16022G","7-ELEVEN #16022G","10/19/2022","Seating 0-12 - Risk Category III","5900 PHINNEY AVE N ","Seattle","98103","(206) 789-4477",-122.354018323,47.6719672037,"7-ELEVEN #16022G","Routine Inspection/Field Review",0,"Satisfactory","false","","",0,"PR0001019","DAXKFFYBY","",1
"923","7-ELEVEN #16365L","7-ELEVEN #16365L","07/19/2022","Seating 0-12 - Risk Category III","6111 24TH AVE NW ","SEATTLE","98107","",-122.3879876496,47.673604739,"7-ELEVEN #16365L","Routine Inspection/Field Review",0,"Satisfactory","false","","",0,"PR0001027","DAA1XVWHR","",1
"928","7-ELEVEN #16545G","7-ELEVEN #16545G","10/21/2022","Seating 0-12 - Risk Category III","103 15TH AVE E ","Seattle","98112","(972) 828-6928",-122.3130112368,47.6186773348,"7-ELEVEN #16545G","Routine Inspection/Field Review",20,"Unsatisfactory","false","BLUE","3200 - Insects, rodents, animals not present; entrance controlled.",5,"PR0011526","DAMOPE0EP","IV4DL2HFB",2
"933","7-ELEVEN #16547P","7-ELEVEN #16547P","11/30/2022","Seating 0-12 - Risk Category III","4812 ERSKINE WAY SW ","SEATTLE","98116","(253) 796-7151",-122.3871279733,47.5588039469,"7-ELEVEN #16547P","Routine Inspection/Field Review",0,"Satisfactory","false","","",0,"PR0002233","DA1EJGD9W","",1
"936","7-ELEVEN #17486N","7-ELEVEN #17486N","","Seating 0-12 - Risk Category III","12702 RENTON AVE S ","Seattle","98178","(972) 828-6865",-122.2379240326,47.4901239508,"","",NA,"","","","",0,"PR0005117","","",1
"937","7-ELEVEN #18553H","7-ELEVEN #18553H","","Seating 0-12 - Risk Category III","3931 STONE WAY N","Seattle","98103","(206) 632-3546",-122.3429274107,47.6551035359,"","",NA,"","","","",0,"PR0001037","","",NA
"938","7-ELEVEN #19042G","7-ELEVEN #19042G","08/10/2022","Seating 0-12 - Risk Category III","7314 AURORA AVE N ","Seattle","98103","(206) 522-7066",-122.3441041651,47.6826132821,"7-ELEVEN #19042G","Routine Inspection/Field Review",0,"Satisfactory","false","","",0,"PR0008294","DAJVL8BRS","",2
"945","7-ELEVEN #21776D","7-ELEVEN #21776D","08/17/2022","Seating 0-12 - Risk Category III","21454 PACIFIC HWY S ","Seattle","98198","(850) 577-6957",-122.2977310427,47.4085153638,"7-ELEVEN #21776D","Routine Inspection/Field Review",10,"Unsatisfactory","false","RED","0600 - Adequate handwashing facilities",10,"PR0004278","DAMRCZP0Y","IVGSPM79Z",2
"955","7-ELEVEN #23020J","7-ELEVEN #23020J","09/29/2022","Seating 0-12 - Risk Category III","1522 E MADISON ST ","Seattle","98122","",-122.3119680733,47.6150841664,"7-ELEVEN #23020J","Consultation/Education - Field",0,"Complete","false","","",0,"PR0002245","DA9DJUQZ6","",1
"1020","7-ELEVEN #23895D","7-ELEVEN #23895D","01/18/2022","Seating 0-12 - Risk Category III","12355 15TH AVE NE ","Seattle","98125","(206) 363-9454",-122.313088745,47.719167956,"7-ELEVEN #23895D","Routine Inspection/Field Review",10,"Unsatisfactory","false","RED","2110 - Proper cold holding temperatures (greater than  45 degrees F)",10,"PR0011694","DAVJBHQOZ","IVB9YCPIP",2
"1058","7-ELEVEN #26939D","7-ELEVEN #26939D","","Seating 0-12 - Risk Category III","2429 HARBOR AVE SW ","SEATTLE","98126","(850) 577-6957",-122.3734129133,47.5813771296,"","",NA,"","","","",0,"PR0013963","","",3
"1086","7-ELEVEN #27742B","7-ELEVEN #27742B","08/17/2022","Seating 0-12 - Risk Category III","20008 PACIFIC HWY S ","SEATTLE","98198","(972) 828-6928",-122.2958737571,47.4223933166,"7-ELEVEN #27742B","Routine Inspection/Field Review",5,"Unsatisfactory","false","RED","2120 - Proper cold holding temperatures ( 42 degrees F to 45 degrees F)",5,"PR0013425","DAUDMEKUN","IVNP4YTPI",2
"1088","7-ELEVEN #32945H","7-ELEVEN #32945H","06/02/2022","Seating 0-12 - Risk Category III","999 NW LEARY WAY ","SEATTLE","98107","(972) 828-6927",-122.3704303179,47.6631556438,"7-ELEVEN #32945H","Routine Inspection/Field Review",0,"Satisfactory","false","","",0,"PR0067270","DAYNFKSMD","",1
"1173","7-ELEVEN #35532B","7-ELEVEN #35532B","11/30/2021","Seating 0-12 - Risk Category III","819 VIRGINIA ST UNIT C-1","SEATTLE","98101","(206) 623-0413",-122.3358385,47.61602863,"7-ELEVEN #35532B","Return Inspection",10,"Unsatisfactory","false","RED","0600 - Adequate handwashing facilities",10,"PR0082120","DA6CS0XNQ","IVQ5CXGLM",3
"1198","7-ELEVEN #35541B","7-ELEVEN #35541B","03/11/2022","Seating 0-12 - Risk Category III","627 1ST AVE","SEATTLE","98104","(206) 467-5979",-122.33446393,47.60251526,"7-ELEVEN #35541B","Routine Inspection/Field Review",20,"Unsatisfactory","false","BLUE","4100 - Warewashing facilities properly installed,...",5,"PR0082979","DAO22KENI","IVZSENFKN",2
"1248","7-ELEVEN #37068A","7-ELEVEN #37068A","11/15/2022","Seating 0-12 - Risk Category III","810 3RD AVE STE 820","SEATTLE","98104","(206) 682-2866",-122.33274881,47.6046984,"7-ELEVEN #37068A","Routine Inspection/Field Review",0,"Satisfactory","false","","",0,"PR0084072","DAGMFLVCC","",1
"1276","7-ELEVEN #37755A","7-ELEVEN #37755A","04/14/2022","Seating 0-12 - Risk Category III","1105 NE 47th ST","SEATTLE","98105","(972) 828-7656",-122.31612382,47.66298557,"7-ELEVEN #37755A","Routine Inspection/Field Review",0,"Satisfactory","false","","",0,"PR0086309","DAS5RKDLI","",1
"1356","7-ELEVEN #41883A","7-ELEVEN #41883A","10/06/2022","Seating 0-12 - Risk Category III","1830 MINOR AVE","SEATTLE","98101","(972) 828-6928",-122.3308116303,47.6172086272,"7-ELEVEN #41883A","Routine Inspection/Field Review",35,"Unsatisfactory","false","BLUE","3400 - Wiping cloths properly used, stored, proper sanitizer",5,"PR0053506","DAZOPF25X","IV0QMMW5N",2
"1383","7-ELEVEN 14436E","7-ELEVEN 14436","06/21/2022","Seating 0-12 - Risk Category III","4312 SW ADMIRAL WAY SW ","Seattle","98116","(425) 271-5030",-122.3867406432,47.5813575574,"7-ELEVEN 14436E","Consultation/Education - Field",0,"Complete","false","","",0,"PR0002237","DAJ5DHMPB","",2
"1513","7-ELEVEN STORE #23525F","7-ELEVEN STORE #23525F","11/17/2022","Seating 0-12 - Risk Category III","12848 M L KING JR WAY S ","SEATTLE","98178","(206) 772-3112",-122.2580865081,47.4877808891,"7-ELEVEN STORE #23525F","Routine Inspection/Field Review",10,"Unsatisfactory","false","RED","0600 - Adequate handwashing facilities",10,"PR0005110","DA0WPGGEG","IVVOAP57I",1
"1531","7-ELEVEN STORE #2360-14355G","7-ELEVEN STORE #2360-14355G","08/10/2022","Seating 0-12 - Risk Category III","9126 ROOSEVELT WAY NE ","Seattle","98115","(206) 522-6231",-122.3170805889,47.6957472793,"7-ELEVEN STORE #2360-14355G","Routine Inspection/Field Review",35,"Unsatisfactory","false","RED","1710 - Proper hot holding temperatures (less than130 degrees)",25,"PR0001011","DAOU8HSPQ","IVQ4UJC0F",2
"1591","7-ELEVEN STORE #2360-14360A","7-ELEVEN STORE #2360-14360A","09/02/2022","Seating 0-12 - Risk Category III","3200 NW 54TH ST ","Seattle","98107","(253) 796-7155",-122.3986795916,47.6677206722,"7-ELEVEN STORE #2360-14360A","Routine Inspection/Field Review",10,"Unsatisfactory","false","RED","1720 - Proper hot holding temperatures; between 130 degrees F to 134 degrees F",5,"PR0001013","DAFMIUB9C","IVBT0CRWA",1
"1643","7-ELEVEN STORE #2360-14373C","7-ELEVEN STORE #2360-14373C","06/02/2022","Seating 0-12 - Risk Category III","8250 LAKE CITY WAY NE ","SEATTLE","98115","(206) 522-2711",-122.3097150192,47.6889474844,"7-ELEVEN STORE #2360-14373C","Return Inspection",0,"Satisfactory","false","","",0,"PR0001012","DAXU2FGZX","",2
"1671","7-ELEVEN STORE #2360-14392B","7-ELEVEN STORE #2360-14392B","04/06/2022","Seating 0-12 - Risk Category III","9 NICKERSON ST ","Seattle","98109","(253) 796-7155",-122.3573274102,47.6491866294,"7-ELEVEN STORE #2360-14392B","Routine Inspection/Field Review",0,"Satisfactory","false","","",0,"PR0002252","DAUPY0P1C","",1
"2015","7-ELEVEN STORE #2360-23109D","7-ELEVEN STORE #2360-23109D","04/05/2022","Seating 0-12 - Risk Category III","362 DENNY WAY ","Seattle","98109","(425) 397-7143",-122.3492997029,47.6187523458,"7-ELEVEN STORE #2360-23109D","Routine Inspection/Field Review",0,"Satisfactory","false","","",0,"PR0002246","DAEZQHDYO","",1
"2039","7-ELEVEN STORE #2360-25525D","7-ELEVEN STORE #2360-25525D","05/18/2022","Seating 0-12 - Risk Category III","1550 NW MARKET ST","SEATTLE","98107","",-122.3785918617,47.6689446959,"7-ELEVEN STORE #2360-25525D","Routine Inspection/Field Review",0,"Satisfactory","false","","",0,"PR0011211","DAQBPIWXP","",1
"2098","7-ELEVEN STORE #2360-26055B","7-ELEVEN STORE #2360-26055B","06/13/2022","Seating 0-12 - Risk Category III","300 N 125TH ST ","Seattle","98133","(253) 796-7155",-122.3550762628,47.7199269081,"7-ELEVEN STORE #2360-26055B","Routine Inspection/Field Review",0,"Satisfactory","false","","",0,"PR0011439","DAGKPFN04","",1
"2158","7-ELEVEN STORE #2360-26544C","7-ELEVEN STORE #2360-26544C","04/12/2022","Seating 0-12 - Risk Category III","304 N 36TH ST ","Seattle","98103","(253) 796-7155",-122.3552133262,47.6527899515,"7-ELEVEN STORE #2360-26544C","Consultation/Education - Field",0,"Complete","false","","",0,"PR0014190","DA3119693","",1
"2204","7-ELEVEN STORE #2361-14443D","7-ELEVEN STORE #2361-14443D","08/11/2022","Seating 0-12 - Risk Category III","14462 34TH AVE S ","Seattle","98168","(253) 796-7155",-122.2892321974,47.4726953229,"7-ELEVEN STORE #2361-14443D","Routine Inspection/Field Review",0,"Satisfactory","false","","",0,"PR0004267","DA8BJB07Y","",1
"2255","7-ELEVEN STORE #2361-14463E","7-ELEVEN STORE #2361-14463E","11/08/2022","Seating 0-12 - Risk Category III","9041 DELRIDGE WAY SW","Seattle","98106","(253) 796-7155",-122.359688364,47.5217700784,"7-ELEVEN STORE #2361-14463E","Routine Inspection/Field Review",0,"Satisfactory","false","","",0,"PR0002249","DAXKGQDQC","",1
"2374","7-ELEVEN STORE #2361-22866C","7-ELEVEN STORE #2361-22866C","04/22/2022","Seating 0-12 - Risk Category III","14207 PACIFIC HWY S ","SEATTLE","98168","(253) 796-7155",-122.2838996762,47.475890596,"7-ELEVEN STORE #2361-22866C","Routine Inspection/Field Review",22,"Unsatisfactory","false","BLUE","5000 - Posting of permit; mobile establishment name...",2,"PR0004279","DA0I6FDKH","IVP71GGEU",1
"2554","7-ELEVEN STORE #2361-24404B","7-ELEVEN STORE #2361-24404B","11/28/2022","Seating 0-12 - Risk Category III","3801 CALIFORNIA AVE SW ","Seattle","98116","(253) 796-7155",-122.3871664132,47.5699586859,"7-ELEVEN STORE #2361-24404B","Routine Inspection/Field Review",0,"Satisfactory","false","","",0,"PR0002242","DAFY7CYGN","",1
"2649","7-ELEVEN STORE #24497J","7-ELEVEN STORE #24497J","","Seating 0-12 - Risk Category III","2009 RAINIER AVE S ","Seattle","98144","(850) 577-6957",-122.3040144096,47.585210303,"","",NA,"","","","",0,"PR0002240","","",1
"2656","7-ELEVEN STORE #27901G","7-ELEVEN STORE #27901G","02/07/2022","Seating 0-12 - Risk Category III","2100 N NORTHGATE WAY ","Seattle","98133","(206) 351-1936",-122.3334961928,47.709022328,"7-ELEVEN STORE #27901G","Consultation/Education - Field",0,"Complete","false","","",0,"PR0016518","DAGUMT0YV","",1
"2723","7-ELEVEN STORE -2361 26818F","7-ELEVEN STORE -2361 26818F","04/19/2022","Seating 0-12 - Risk Category III","19023 PACIFIC HWY S ","Seattle","98188","(253) 796-7155",-122.2956293304,47.4325376974,"7-ELEVEN STORE -2361 26818F","Routine Inspection/Field Review",0,"Satisfactory","false","","",0,"PR0017475","DAZTBGGP0","",1
"2979","74TH ST ALE HOUSE","74TH ST ALE HOUSE","09/12/2022","Seating 13-50 - Risk Category III","7401 GREENWOOD AVE N ","Seattle","98103","(206) 228-7908",-122.3556185508,47.6826846077,"74TH ST ALE HOUSE","Routine Inspection/Field Review",0,"Satisfactory","false","","",0,"PR0012518","DAXYH2EKD","",1
"3027","757 MINI MART","757 MINI MART","05/04/2022","Grocery Store-no seating - Risk Category I","14257 DES MOINES MEMORIAL DR S ","Seattle","98168","(206) 242-9431",-122.315780895,47.4743730263,"757 MINI MART","Routine Inspection/Field Review",0,"Satisfactory","false","","",0,"PR0005059","DAHGL0DOU","",NA
"3044","76 FOOD #284","76 FOOD #284","02/14/2022","Seating 0-12 - Risk Category III","12807 DES MOINES MEMORIAL DR S ","Seattle","98168","(206) 650-5442",-122.3122505786,47.4882934166,"76 FOOD #284","Routine Inspection/Field Review",5,"Unsatisfactory","false","RED","2120 - Proper cold holding temperatures ( 42 degrees F to 45 degrees F)",5,"PR0012277","DAVSE1OHG","IVRBKJUMA",1
"3063","76 GAS STATION","76 GAS STATION","08/23/2022","Seating 0-12 - Risk Category I","6600 M L KING JR WAY S ","SEATTLE","98118","",-122.2836678222,47.5429415787,"76 GAS STATION","Routine Inspection/Field Review",0,"Satisfactory","false","","",0,"PR0012526","DAIHLHNJX","",1
"3217","8 OZ BURGER BAR","8 OZ BURGER BAR","11/15/2022","Seating 51-150 - Risk Category III","1401 BROADWAY","SEATTLE","98122","(206) 819-0776",-122.321069774,47.6131603112,"8 OZ BURGER BAR","Routine Inspection/Field Review",10,"Satisfactory","false","BLUE","3400 - Wiping cloths properly used, stored, sanitizer concentration",5,"PR0081817","DAOT2RXRG","IVK4L3RDX",2
"3287","84 YESLER","84 YESLER","04/13/2022","Seating 13-50 - Risk Category III","84 YESLER WAY","SEATTLE","98104","(206) 618-7739",-122.33508465,47.60186637,"84 YESLER","Routine Inspection/Field Review",10,"Unsatisfactory","false","RED","2600 - Compliance with risk control plans, variances, plan of operation; valid permit; appr procedur",10,"PR0087979","DA581WWPK","IVR0GKSTJ",1
"3334","8OZ BURGER & CO","8 OZ BURGER & CO","08/19/2022","Seating 51-150 - Risk Category III","2409 NW MARKET ST ","SEATTLE","98107","(206) 819-0705",-122.3881669378,47.668442488,"8OZ BURGER & CO","Routine Inspection/Field Review",0,"Satisfactory","false","","",0,"PR0070948","DARMGVQS2","",1
"3363","8TH MARKET GAS","8TH MARKET GAS","","Grocery Store-no seating - Risk Category I","719 NW MARKET ST","Seattle","98107","(206) 910-4120",-122.3656192052,47.6684168392,"","",NA,"","","","",0,"PR0012712","","",NA
"3364","9 HATS WINERY","9 HATS WINERY","03/03/2022","Seating 51-150 - Risk Category III","3861 1ST AVE S STE C","SEATTLE","98134","(206) 366-0335",-122.33486445,47.56800459,"9 HATS WINERY","Routine Inspection/Field Review",0,"Satisfactory","false","","",0,"PR0086901","DARZ3LSAB","",2
"3660","9TH AND HENNEPIN DONUTS KC#965","9TH AND HENNEPIN DONUTS KC#965","","Mobile Food Unit - Risk Category III","5600 DELRIDGE WAY SW","SEATTLE","98106","(206) 459-5012",-122.3627,47.55177,"","",NA,"","","","",0,"PR0090704","","",NA
"3661","9TH AND PIKE","9TH AND PIKE","","Seating 13-50 - Risk Category III","17801 INTERNATIONAL BL C","SEATTLE","98158","(503) 256-2222",-122.302146,47.443015,"","",NA,"","","","",0,"PR0090288","","",NA
"3662","A & B CAFE","A & B CAFE","05/26/2021","Seating 13-50 - Risk Category III","670 S WELLER ST ","SEATTLE","98104","(206) 625-0408",-122.3240987387,47.5976365562,"A & B CAFE","Routine Inspection/Field Review",0,"Satisfactory","false","","",0,"PR0027524","DABKNBCBK","",1
"3740","A COMMON CAKE BOND","A COMMON CAKE BOND","","Seating 0-12 - Risk Category III","2207 NE 65TH ST","SEATTLE","98115","(206) 550-3711",-122.304025124,47.6756724899,"","",NA,"","","","",0,"PR0079430","","",NA
"3742","A LA MODE PIES","A LA MODE PIES","01/20/2022","Seating 0-12 - Risk Category II","5821 PHINNEY AVE N","SEATTLE","98103","(206) 383-3796",-122.35467138,47.67170486,"A LA MODE PIES","Routine Inspection/Field Review",0,"Satisfactory","false","","",0,"PR0081545","DATNDX2Z0","",2
"3773","A LA MODE PIES BALLARD","A LA MODE PIES BALLARD","04/13/2022","Seating 13-50 - Risk Category II","2034 NW 56TH ST #150","SEATTLE","98107","(206) 456-4343",-122.383687,47.669679,"A LA MODE PIES BALLARD","Routine Inspection/Field Review",5,"Unsatisfactory","false","RED","1400 - Raw meats below and away from ready to eat food; species separated",5,"PR0083557","DATUO5JUT","IVLR0RIF0",1
"3775","A LA MODE PIES LLC","A LA MODE PIES LLC","11/30/2022","Seating 13-50 - Risk Category III","4225 SW ALASKA ST","SEATTLE","98116","(206) 456-4343",-122.38630309,47.56092599,"A LA MODE PIES LLC","Routine Inspection/Field Review",0,"Satisfactory","false","","",0,"PR0086230","DATTYTCWB","",1
"3790","A PIZZA MART","A PIZZA MART","08/18/2022","Seating 51-150 - Risk Category III","1823 TERRY AVE #102","SEATTLE","98101","(206) 697-8011",-122.33341979,47.61589083,"A PIZZA MART","Return Inspection",0,"Satisfactory","false","","",0,"PR0081936","DADJ2WTLN","",2
"3800","A PIZZA MART","A PIZZA MART","01/13/2022","Seating 13-50 - Risk Category III","1433 11TH AVE","SEATTLE","98122","(206) 538-0407",-122.31842501,47.6136936,"A PIZZA MART","Routine Inspection/Field Review",10,"Unsatisfactory","false","RED","0600 - Adequate handwashing facilities",10,"PR0087727","DANJPVNW0","IVCOE07WB",2
"3801","A PIZZA MART","A PIZZA MART","11/17/2021","Seating 13-50 - Risk Category III","800 SENECA ST 103","SEATTLE","98101","(206) 517-4000",-122.32972116,47.6097667,"A PIZZA MART","Routine Inspection/Field Review",10,"Satisfactory","false","BLUE","4100 - Warewashing facilities properly installed,...",5,"PR0086521","DAQL6CQER","IV77DBKN2",1
"3803","A PIZZA MART","A PIZZA MART","11/15/2021","Seating 13-50 - Risk Category III","2525 6TH AVE","SEATTLE","98121","(206) 322-4323",-122.34534865,47.61828716,"A PIZZA MART","Routine Inspection/Field Review",0,"Satisfactory","false","","",0,"PR0085756","DAYJK0IYW","",1
"3897","A PIZZA MART BAR & GRILL INC","A PIZZA MART BAR & GRILL INC","03/29/2022","Seating 51-150 - Risk Category III","5240 UNIVERSITY WAY NE STE D","SEATTLE","98105","(206) 697-5011",-122.31267798,47.66761667,"A PIZZA MART BAR & GRILL INC","Routine Inspection/Field Review",10,"Unsatisfactory","false","RED","2110 - Proper cold holding temperatures (greater than  45 degrees F)",10,"PR0083173","DAFAKWRTE","IVF0ZWDKE",1
"3962","A PLUS HONG KONG KITCHEN","A PLUS HONG KONG KITCHEN","10/03/2022","Seating 13-50 - Risk Category III","669 S KING ST STE 103","SEATTLE","98104","(425) 220-9333",-122.32417,47.59822,"A PLUS HONG KONG KITCHEN","Return Inspection",0,"Satisfactory","false","","",0,"PR0089348","DA6TQOOV7","",2
"3975","A PLUS KITCHEN INC","A PLUS KITCHEN INC","11/23/2022","Seating 13-50 - Risk Category III","419 6TH AVE S ","SEATTLE","98104","(206) 859-1874",-122.3265255873,47.5985422649,"A PLUS KITCHEN INC","Return Inspection",8,"Satisfactory","false","BLUE","3300 - Potential food contamination prevented during delivery,  preparation, storage, display",5,"PR0077592","DAR1ZSQ1X","IVQI45JDH",2
"4011","A'AMORE EVENTS & ENT. LLC DBA INKEDIBLE IMAGES","A'AMORE EVENTS & ENT. LLC DBA INKEDIBLE IMAGES","08/12/2022","Caterer - Risk Category I","520 S MASSACHUSETTS ST","SEATTLE","98134","(425) 427-8964",-122.32696335,47.5884911,"A'AMORE EVENTS & ENT. LLC DBA INKEDIBLE IMAGES","Routine Inspection/Field Review",0,"Satisfactory","false","","",0,"PR0090475","DAZN3210V","",NA
"4012","A-CHAU CAFE LLC","A-CHAU CAFE LLC","","Seating 13-50 - Risk Category II","6902 RAINIER AVE S","SEATTLE","98118","(206) 369-8126",-122.2711872177,47.540564649,"","",NA,"","","","",0,"PR0069317","","",1
"4013","A-PIZZA MART","A-PIZZA MART","01/26/2022","Seating 0-12 - Risk Category III","9452 35TH AVE SW ","Seattle","98126","(206) 932-5350",-122.3763195441,47.517727118,"A-PIZZA MART","Routine Inspection/Field Review",0,"Satisfactory","false","","",0,"PR0029367","DA9AEDJJT","",1
"4082","A1 MARKET","A1 MARKET","06/13/2022","Seating 13-50 - Risk Category III","14401 GREENWOOD AVE N","SEATTLE","98133","(206) 679-0369",-122.35598551,47.7333351,"A1 MARKET","Routine Inspection/Field Review",0,"Satisfactory","false","","",0,"PR0085860","DAEZXGAWG","",1
"4098","A1 MART, INC","A1 MART, INC","06/22/2022","Seating 13-50 - Risk Category III","10406 GREENWOOD AVE N","SEATTLE","98133","(206) 407-6732",-122.3549588079,47.7046009374,"A1 MART, INC","Routine Inspection/Field Review",0,"Satisfactory","false","","",0,"PR0067500","DAYZCOYFU","",1
"4261","ABARROTES EL OAXAQUENO","ABARROTES EL OAXAQUENO","02/11/2022","Grocery Store-no seating - Risk Category I","4515 15TH AVE S","SEATTLE","98108","(206) 954-2229",-122.31388154,47.56303484,"ABARROTES EL OAXAQUENO","Routine Inspection/Field Review",0,"Satisfactory","false","","",0,"PR0082013","DALDG4WR9","",NA
"4273","ABARROTES RAMIREZ","ABARROTES RAMIREZ","08/11/2022","Grocery Store-no seating - Risk Category I","3218 RAINIER AVE S ","SEATTLE","98144","(206) 683-1013",-122.2946149144,47.5745007576,"ABARROTES RAMIREZ","Routine Inspection/Field Review",0,"Satisfactory","false","","",0,"PR0069921","DATEJFJGU","",NA
"4280","ABAY RESTAURANT & CAFE","ABAY RESTAURANT & CAFE","","Seating 51-150 - Risk Category III","14857 International BL S","Seattle","98168","(206) 471-4220",-122.2866588674,47.4701198061,"","",NA,"","","","",0,"PR0011058","","",1
"4281","ABBOUD'S MCDONALD'S, LLC","ABBOUD'S MCDONALDS","09/15/2022","Seating 51-150 - Risk Category III","6546 CALIFORNIA AVE SW","Seattle","98136","(206) 762-9445",-122.3868457608,47.5433052494,"ABBOUD'S MCDONALD'S, LLC","Routine Inspection/Field Review",0,"Satisfactory","false","","",0,"PR0003302","DAEOTAEWJ","",1
"4325","ABBOUD'S MCDONALDS, LLC","ABBOUD'S MCDONALDS, LLC","06/21/2022","Seating 13-50 - Risk Category III","3003 CALIFORNIA AVE SW ","Seattle","98116","(206) 767-5258",-122.387121862,47.5767089847,"ABBOUD'S MCDONALDS, LLC","Consultation/Education - Field",0,"Complete","false","","",0,"PR0044982","DATHJ7ZQJ","",1
"4402","ABURIYA BENTO HOUSE","ABURIYA BENTO HOUSE","05/04/2022","Seating 13-50 - Risk Category III","2100 WESTERN AVE B","SEATTLE","98121","(206) 453-4685",-122.34478292,47.61130615,"ABURIYA BENTO HOUSE","Routine Inspection/Field Review",0,"Satisfactory","false","","",0,"PR0080364","DAV8CAAAD","",1
"4410","ABYSSINIA MARKET","ABYSSINIA MARKET","01/21/2022","Seating 0-12 - Risk Category II","2225 4TH AVE ","Seattle","98121","(206) 770-9410",-122.3440676667,47.615079327,"ABYSSINIA MARKET","Routine Inspection/Field Review",0,"Satisfactory","false","","",0,"PR0003899","DAE5LFMSN","",1
"4669","ACCITUNO'S #12","ACCITUNO'S #12","04/13/2022","Seating 13-50 - Risk Category III","13055 LAKE CITY WAY NE ","SEATTLE","98125","(206) 861-2008",-122.293080219,47.7245314316,"ACCITUNO'S #12","Routine Inspection/Field Review",0,"Satisfactory","false","","",0,"PR0046917","DAY1OWDWD","",1
"4790","ADA'S RESTAURANT & BAR","ADA'S RESTAURANT & BAR","11/14/2019","Seating 13-50 - Risk Category III","5910 PHINNEY AVE N ","Seattle","98103","(206) 906-9554",-122.3542057885,47.6721711301,"ADA'S RESTAURANT & BAR","Routine Inspection/Field Review",0,"Satisfactory","false","","",0,"PR0001429","DAEP5H0MR","",1
"4794","ADA'S TECHNICAL BOOKS AND CAFE","ADA'S TECHNICAL BOOKS & CAFE","07/12/2022","Seating 51-150 - Risk Category III","425 15TH AVE E","SEATTLE","98112","(206) 941-4010",-122.31286237,47.62268345,"ADA'S TECHNICAL BOOKS AND CAFE","Routine Inspection/Field Review",5,"Unsatisfactory","false","RED","2120 - Proper cold holding temperatures ( 42 degrees F to 45 degrees F)",5,"PR0083069","DALIB0YU8","IVIZYDA0R",1
"4813","ADAMS ELEMENTARY SCHOOL","ADAMS ELEMENTARY SCHOOL","09/22/2022","School Lunch Program - Risk II","6110 28TH AVE NW ","Seattle","98107","",-122.392119067,47.6734987391,"ADAMS ELEMENTARY SCHOOL","Routine Inspection/Field Review",0,"Satisfactory","false","","",0,"PR0001045","DAJAV8MCV","",NA
"4847","ADDIS MANAGEMENT INC","ADDIS MANAGEMENT INC","","Seating 0-12 - Risk Category III","11065 8TH AVE S ","Seattle","98168","(253) 796-7155",-122.3235607317,47.5032374689,"","",NA,"","","","",0,"PR0004269","","",1
"4896","ADEY ABEBA ETHIOPIAN RESTAURANT","ADEY ABEBA ETHIOPIAN RESTAURANT","10/04/2022","Seating 13-50 - Risk Category III","2123 E UNION ST ","SEATTLE","98122","",-122.3038409663,47.6127386315,"ADEY ABEBA ETHIOPIAN RESTAURANT","Routine Inspection/Field Review",20,"Unsatisfactory","false","BLUE","4200 - Food-contact surfaces maintained, clean, sanitized",5,"PR0070233","DAFCTWC0R","IVFLSSUYB",1
"4959","ADMIRAL CHEVRON","ADMIRAL CHEVRON","09/21/2022","Seating 0-12 - Risk Category III","4100 SW ADMIRAL WAY","SEATTLE","98116","(206) 937-3654",-122.38418131,47.58146346,"ADMIRAL CHEVRON","Routine Inspection/Field Review",0,"Satisfactory","false","","",0,"PR0084512","DAUL4PHVS","",1
"4960","ADMIRAL CHEVRON","ADMIRAL CHEVRON","09/21/2022","Seating 0-12 - Risk Category III","2347 CALIFORNIA AVE SW ","Seattle","98116","",-122.3869173867,47.5814948042,"ADMIRAL CHEVRON","Routine Inspection/Field Review",0,"Satisfactory","false","","",0,"PR0032808","DAJKRGFFF","",1
"5027","ADMIRAL CINEMA LLC","ADMIRAL CINEMA LLC","11/10/2021","Seating 0-12 - Risk Category I","2343 CALIFORNIA AVE ","SEATTLE","98116","",-122.3867328999,47.5827069467,"ADMIRAL CINEMA LLC","Routine Inspection/Field Review",2,"Satisfactory","false","BLUE","5000 - Posting of permit; mobile establishment name...",2,"PR0071437","DAP5QQSW1","IVZ48ZUDN",1
"5042","ADMIRAL PUB","ADMIRAL PUB","07/19/2022","Seating 51-150 - Risk Category III","2306 CALIFORNIA AVE SW ","Seattle","98116","(206) 889-3945",-122.3862261638,47.582697064,"ADMIRAL PUB","Consultation/Education - Field",0,"Complete","false","","",0,"PR0003839","DADBZTF4X","",1
"5049","ADULIS ERITREAN & ETHIOPIAN RESTAURANT","ADULIS ERITREAN & ETHIOPIAN RESTAURANT","11/21/2022","Seating 51-150 - Risk Category III","10515 GREENWOOD AVE N","SEATTLE","98133","(206) 399-5160",-122.3558631252,47.7055827179,"ADULIS ERITREAN & ETHIOPIAN RESTAURANT","Routine Inspection/Field Review",13,"Unsatisfactory","false","BLUE","3900 - Single-use and single-service articles properly stored, used",3,"PR0001638","DAN0TVH9P","IV3WL1YE5",1
"5067","AERLUME","AERLUME","09/08/2022","Seating 151-250 - Risk Category III","2003 WESTERN AVE STE C","SEATTLE","98121","(206) 352-1450",-122.34481,47.61079,"AERLUME","Consultation/Education - Field",0,"Complete","false","","",0,"PR0087984","DA8F9FX0I","",1
"5111","AF OPERATIONS TRUCK #2 - UWA2","AF OPERATIONS TRUCK #2- UWA2","08/20/2019","Mobile Food Unit - Risk Category I","13537 AURORA AVE N","SEATTLE","98133","(206) 740-8467",-122.17543863,47.62244479,"AF OPERATIONS TRUCK #2 - UWA2","Routine Inspection/Field Review",0,"Satisfactory","false","","",0,"PR0085004","DAPZNVY7G","",NA
"5169","AFC SUSHI (SAFEWAY #1550)","AFC SUSHI (SAFEWAY #1550)","10/12/2022","Seating 0-12 - Risk Category III","7300 ROOSEVELT WAY NE ","SEATTLE","98115","(206) 525-6348",-122.3170102326,47.6819919883,"AFC SUSHI (SAFEWAY #1550)","Routine Inspection/Field Review",5,"Satisfactory","false","BLUE","4200 - Food-contact surfaces maintained, clean, sanitized",5,"PR0087651","DAAQFHUBY","IVNEIP1ID",1
"5176","AFC SUSHI (SAFEWAY #1551)","AFC SUSHI @ SAFEWAY , #1551","10/14/2022","Seating 0-12 - Risk Category III","1410 E JOHN ST ","SEATTLE","98112","",-122.3131356749,47.6204942289,"AFC SUSHI (SAFEWAY #1551)","Routine Inspection/Field Review",5,"Unsatisfactory","false","RED","2120 - Proper cold holding temperatures ( 42 degrees F to 45 degrees F)",5,"PR0067105","DAP1MJXLF","IVVXJOHHU",1
"5251","AFC SUSHI @ AMAZON DOPPLER BUILDING","AFC SUSHI @ AMAZON DOPPLER BUILDING","08/14/2019","Seating 0-12 - Risk Category III","2021 7TH AVE","SEATTLE","98121","(310) 604-3200",-122.33840633,47.61534171,"AFC SUSHI @ AMAZON DOPPLER BUILDING","Routine Inspection/Field Review",10,"Unsatisfactory","false","RED","2110 - Proper cold holding temperatures (greater than  45 degrees F)",10,"PR0088082","DAXI0434S","IVYN6YYZR",1
"5252","AFC Sushi @ AMZ042","AFC Sushi @ AMZ042","10/25/2022","Seating 0-12 - Risk Category III","13201 AURORA AVE N","Seattle","98133","(310) 604-3200",-122.34699268,47.72558082,"AFC Sushi @ AMZ042","Routine Inspection/Field Review",0,"Satisfactory","false","","",0,"PR0090233","DA0GWUSWR","",1
"5256","AFC SUSHI @ BOEING #2","AFC SUSHI @ BOEING #2","09/16/2022","Seating 0-12 - Risk Category III","7755 E MARGINAL WAY","SEATTLE","98108","(310) 604-3200",-122.31174,47.53229,"AFC SUSHI @ BOEING #2","Routine Inspection/Field Review",5,"Satisfactory","false","BLUE","3400 - Wiping cloths properly used, stored, proper sanitizer",5,"PR0086463","DAVOWMZZS","IV4AWB0MV",1
"5614","AFC SUSHI @ METOPOLITAN MARKET #157","AFC SUSHI @ METOPOLITAN MARKET #157","06/15/2022","Seating 0-12 - Risk Category III","100 MERCER ST ","SEATTLE","98109","(310) 604-3200",-122.3544147995,47.6248335865,"AFC SUSHI @ METOPOLITAN MARKET #157","Routine Inspection/Field Review",0,"Satisfactory","false","","",0,"PR0076652","DAPL6YWUD","",1
"5657","AFC SUSHI @ METROPOLITAN #153","AFC SUSHI @ METROPOLITAN #153","07/06/2022","Seating 0-12 - Risk Category III","2320 42ND AVE SW ","SEATTLE","98116","",-122.3845548788,47.581905256,"AFC SUSHI @ METROPOLITAN #153","Consultation/Education - Field",0,"Complete","false","","",0,"PR0046980","DAWMDJBM9","",1
"5709","AFC SUSHI @ METROPOLITAN 156","AFC SUSHI @ METROPOLITAN 156","08/15/2022","Seating 0-12 - Risk Category III","5250 40TH AVE NE ","SEATTLE","98105","(310) 604-3200",-122.2839495952,47.6681496981,"AFC SUSHI @ METROPOLITAN 156","Routine Inspection/Field Review",5,"Satisfactory","false","BLUE","4200 - Food-contact surfaces maintained, clean, sanitized",5,"PR0069588","DA8UFMOGW","IVRCEE6XS",1
"5794","AFC SUSHI @ SAFEWAY  #2932","AFC SUSHI","06/21/2022","Seating 0-12 - Risk Category III","2622 CALIFORNIA AVE SW","SEATTLE","98116","(310) 604-3200",-122.385802636,47.5799024004,"AFC SUSHI @ SAFEWAY  #2932","Consultation/Education - Field",0,"Complete","false","","",0,"PR0081520","DA7MTFT34","",1
"5835","AFC SUSHI @ SAFEWAY #1062","AFC SUSHI @ SAFEWAY #1062","09/21/2022","Seating 0-12 - Risk Category III","4754 42ND AVE SW","SEATTLE","98116","(206) 932-6026",-122.38485,47.55976,"AFC SUSHI @ SAFEWAY #1062","Routine Inspection/Field Review",0,"Satisfactory","false","","",0,"PR0088687","DAE0YJSA6","",1
"5840","AFC SUSHI @ SAFEWAY #1143","AFC SUSHI @ SAFEWAY #1143","02/10/2021","Seating 0-12 - Risk Category III","8340 15TH AVE NW","SEATTLE","98117","(310) 604-3200",-122.37640847,47.6900328,"AFC SUSHI @ SAFEWAY #1143","Routine Inspection/Field Review",0,"Satisfactory","false","","",0,"PR0087861","DA3MTEUFU","",1
"5874","AFC SUSHI @ SAFEWAY #1477","AFC SUSHI @ SAFEWAY #1477","09/09/2022","Seating 0-12 - Risk Category III","1423 NW MARKET ST","SEATTLE","98107","(310) 604-3200",-122.3741713,47.66822144,"AFC SUSHI @ SAFEWAY #1477","Routine Inspection/Field Review",25,"Unsatisfactory","false","RED","1900 - No room temperature storage; proper use of time...",25,"PR0088160","DAQE9EOSQ","IVDERJZWZ",2
"5879","AFC SUSHI @ SAFEWAY #1508","AFC SUSHI @ SAFEWAY #1508","10/13/2022","Seating 0-12 - Risk Category III","3820 RAINIER AVE S","SEATTLE","98118","(206) 725-9575",-122.28805618,47.56833229,"AFC SUSHI @ SAFEWAY #1508","Consultation/Education - Field",0,"Complete","false","","",0,"PR0088856","DAA9N3G0G","",1
"5964","AFC SUSHI @ SAFEWAY #1885","AFC SUSHI @ SAFEWAY #1885","11/29/2022","Seating 0-12 - Risk Category III","516 1ST AVE W","SEATTLE","98119","(206) 494-1685",-122.35774894,47.62395194,"AFC SUSHI @ SAFEWAY #1885","Routine Inspection/Field Review",3,"Satisfactory","false","BLUE","3000 - Proper thawing methods used",3,"PR0090674","DAGEJETZE","IVMN0AB6B",1
"5965","AFC SUSHI @ SAFEWAY #1923","AFC SUSHI @ SAFEWAY #1923","07/20/2022","Seating 0-12 - Risk Category III","9620 28TH AVE SW","SEATTLE","98126","(310) 604-3200",-122.36668833,47.51668087,"AFC SUSHI @ SAFEWAY #1923","Routine Inspection/Field Review",0,"Satisfactory","false","","",0,"PR0084242","DAO8SNVUH","",1
"6095","AFC SUSHI @ SAFEWAY #423","AFC SUSHI @ SAFEWAY #423","07/13/2022","Seating 0-12 - Risk Category III","7340 35TH AVE NE","SEATTLE","98115","(206) 524-7064",-122.28940845,47.68263882,"AFC SUSHI @ SAFEWAY #423","Return Inspection",0,"Satisfactory","false","","",0,"PR0087824","DA4EQWAPE","",3
"6113","AFC SUSHI @ SAFEWAY #488","AFC SUSHI @ SAFEWAY #0488","09/28/2022","Seating 0-12 - Risk Category III","3020 NE 45TH ST","SEATTLE","98105","(206) 522-8350",-122.29493497,47.66189057,"AFC SUSHI @ SAFEWAY #488","Routine Inspection/Field Review",2,"Satisfactory","false","BLUE","5000 - Posting of permit; mobile establishment name...",2,"PR0087618","DAZZJ5SI0","IVN450WDP",1
"6197","AFC SUSHI @ SEATTLE UNIVERSITY #1","AFC SUSHI @ SEATTLE UNIVERSITY #1","09/26/2022","Seating 0-12 - Risk Category III","1000 E JAMES WAY","SEATTLE","98122","(310) 604-3200",-122.31822041,47.60830469,"AFC SUSHI @ SEATTLE UNIVERSITY #1","Routine Inspection/Field Review",10,"Unsatisfactory","false","RED","0600 - Adequate handwashing facilities",10,"PR0088051","DAHK40YGW","IVSYB6KQH",1
"6203","AFC SUSHI@ METROPOLITAN MARKET #161","AFC SUSHI #161 @ METROPOLITAN MARKET","10/13/2021","Seating 0-12 - Risk Category III","3830 34TH AVE W","SEATTLE","98199","(310) 604-3200",-122.400591,47.654794,"AFC SUSHI@ METROPOLITAN MARKET #161","Routine Inspection/Field Review",8,"Satisfactory","false","BLUE","3000 - Proper thawing methods used",3,"PR0082750","DAX2PCAYO","IV2W6JMBS",1
"6219","AFC SUSHI@ SAFEWAY #1586","AFC SUSHI @ SAFEWAY # 1586","01/26/2022","Seating 0-12 - Risk Category III","12318 15TH AVE NE","SEATTLE","98125","(310) 604-3200",-122.311913,47.717986,"AFC SUSHI@ SAFEWAY #1586","Routine Inspection/Field Review",25,"Unsatisfactory","false","RED","0400 - Hands washed as required",25,"PR0082021","DAHKQFFYB","IV5B2JYKY",1
"6261","AFRICA LOUNGE","Conc. A - AFRICA LOUNGE - SOUTH C 15","02/09/2022","Seating 51-150 - Risk Category III","SEA-TAC AIRPORT ConA","SEATTLE","98158","",-122.30228,47.44362,"AFRICA LOUNGE","Consultation/Education - Field",0,"Complete","false","","",0,"PR0070070","DART0JQFE","",1
"6323","AFRIK GROCERY","AFRIK GROCERY","06/27/2022","Grocery Store-no seating - Risk Category I","4610 MARTIN LUTHER KING JR WAY S","SEATTLE","98108","(206) 427-6427",-122.293542,47.561836,"AFRIK GROCERY","Routine Inspection/Field Review",25,"Unsatisfactory","false","BLUE","3300 - Potential food contamination prevented during delivery,  preparation, storage, display",5,"PR0083937","DAQDNO2MQ","IV30H100W",NA
"6512","AGAVE COCINA & TEQUILAS","AGAVE COCINA & TEQUILAS","03/22/2022","Seating 51-150 - Risk Category III","100 REPUBLICAN ST","SEATTLE","98109","(425) 269-5144",-122.35510754,47.62343156,"AGAVE COCINA & TEQUILAS","Routine Inspection/Field Review",3,"Satisfactory","false","BLUE","3000 - Proper thawing methods used",3,"PR0083938","DANJOL2B5","IVCYYDG9W",1
"6534","AGELGL ETHIOPIA","AGELGL ETHIOPIA","04/21/2022","Seating 13-50 - Risk Category III","2800 E CHERRY ST ","Seattle","98122","",-122.295873165,47.6081764027,"AGELGL ETHIOPIA","Routine Inspection/Field Review",5,"Unsatisfactory","false","RED","1400 - Raw meats below and away from ready to eat food; species separated",5,"PR0052102","DA6KRC363","IV7UUHSM5",1
"6566","AGLIO E OLIO","AGLIO E OLIO","12/14/2021","Seating 13-50 - Risk Category III","2743 E MADISON ST","SEATTLE","98112","(206) 622-7868",-122.29593245,47.62322936,"AGLIO E OLIO","Routine Inspection/Field Review",5,"Unsatisfactory","false","RED","0200 - Food Worker Cards current for all food workers; new food workers trained",5,"PR0085432","DA9ORDINP","IVPZGTBCM",1
"6577","AGUA VERDE CAFE","AGUA VERDE CAFE KC9551","08/10/2022","Mobile Food Unit - Risk Category III","1303 NE BOAT ST","SEATTLE","98105","(206) 818-6937",-122.3144144273,47.6516131197,"AGUA VERDE CAFE","Routine Inspection/Field Review",25,"Unsatisfactory","false","RED","0800 - Water supply, ice from approved source",15,"PR0088993","DAFAMGQYQ","IVV6NRACI",NA
"6605","AHADU","AHADU","10/17/2022","Seating 13-50 - Risk Category III","1508 NE 117TH ST","SEATTLE","98125","(206) 367-3998",-122.31189716,47.7141502,"AHADU","Routine Inspection/Field Review",5,"Unsatisfactory","false","RED","2300 - Proper consumer advisory posted for raw or undercooked foods",5,"PR0081249","DAOEEE9XR","IVTOS0IWQ",1
"6654","AIRBNB SEATTLE","AIRBNB SEATTLE","11/04/2022","Seating 0-12 - Risk Category III","720 OLIVE WAY","SEATTLE","98101","(847) 217-6729",-122.33485129,47.61418075,"AIRBNB SEATTLE","Routine Inspection/Field Review",0,"Incomplete","false","","",0,"PR0087360","DAOO9L1MR","",1
"6671","AIRPORT 76","AIRPORT 76","05/10/2022","Seating 0-12 - Risk Category III","4603 S 188TH ST ","Seattle","98188","(253) 931-0554",-122.2758381359,47.4341094377,"AIRPORT 76","Routine Inspection/Field Review",0,"Satisfactory","false","","",0,"PR0021124","DAHB1YUTE","",1
"6862","AKI KUROSE","AKI KUROSE","09/29/2022","School Lunch Program - Risk II","3928 S GRAHAM ST ","Seattle","98118","",-122.2819803375,47.5463218344,"AKI KUROSE","Routine Inspection/Field Review",5,"Satisfactory","false","BLUE","4100 - Warewashing facilities properly installed,...",5,"PR0024031","DAP2WQSQ0","IVGCHJVXT",NA
"6901","AL BACHA","AL BACHA","09/16/2022","Seating 13-50 - Risk Category III","1833 BROADWAY","SEATTLE","98122","(425) 773-8689",-122.32109,47.6186,"AL BACHA","Consultation/Education - Field",0,"Complete","false","","",0,"PR0087162","DAU07JBDY","",3
"6923","AL'S GOURMET SAUSAGE #5","AL'S GOURMET SAUSGE @  1029 OCCIDENTAL","09/26/2022","Mobile Food Unit - Risk Category II","170 KING ST ","SEATTLE","98104","",-122.3323348755,47.5984533304,"AL'S GOURMET SAUSAGE #5","Routine Inspection/Field Review",10,"Unsatisfactory","false","RED","0600 - Adequate handwashing facilities",10,"PR0066378","DA3161985","IVOWEFGYH",NA
"6962","AL'S GOURMET SAUSAGE DTEH - 034","AL'S GOURMET - DTEH034 / 1029 OCCIDENTAL","09/26/2022","Mobile Food Unit - Risk Category III","170 KING ST","SEATTLE","98104","(206) 551-2399",-122.3333,47.59389,"AL'S GOURMET SAUSAGE DTEH - 034","Routine Inspection/Field Review",10,"Unsatisfactory","false","RED","0600 - Adequate handwashing facilities",10,"PR0078103","DA3161984","IVXBYUERY",NA
"7037","AL'S TAVERN","AL'S TAVERN","10/27/2022","Seating 13-50 - Risk Category II","2303 N 45TH ST ","Seattle","98103","(206) 545-9959",-122.3311401963,47.6611843419,"AL'S TAVERN","Routine Inspection/Field Review",5,"Satisfactory","false","BLUE","4100 - Warewashing facilities properly installed, maintained, used;",5,"PR0001048","DAYYWC0D3","IVTYQXJ0S",1
"7119","ALACART LLC / WOK","ALACART LLC / WOK","05/04/2022","Seating 0-12 - Risk Category III","305 HARRISON ST","SEATTLE","98109","(206) 719-5549",-122.35358907,47.62136571,"ALACART LLC / WOK","Routine Inspection/Field Review",0,"Satisfactory","false","","",0,"PR0082432","DAR9STY4C","",1
"7137","ALADDIN CHAR BURGER","ALADDIN CHAR BURGER","06/27/2022","Seating 13-50 - Risk Category III","4135 UNIVERSITY WAY NE ","Seattle","98105","(206) 687-0041",-122.3135471524,47.6579623744,"ALADDIN CHAR BURGER","Routine Inspection/Field Review",37,"Unsatisfactory","false","BLUE","5000 - Posting of permit; mobile establishment name...",2,"PR0031822","DA3137917","IV7032742",3
"7142","ALADDIN FALAFEL CORNER","ALADDIN FALAFEL CORNER","06/01/2022","Seating 0-12 - Risk Category III","4541 UNIVERSITY WAY NE ","Seattle","98105","(206) 548-9539",-122.3134460899,47.6624405949,"ALADDIN FALAFEL CORNER","Routine Inspection/Field Review",30,"Unsatisfactory","false","BLUE","3400 - Wiping cloths properly used, stored, proper sanitizer",5,"PR0043224","DA4PKEND8","IVQV1VIEF",2
"7235","ALADDIN GYRO RESTAURANT","ALADDIN GYRO RESTAURANT","06/27/2022","Seating 13-50 - Risk Category III","4139 UNIVERSITY WAY NE ","Seattle","98105","(206) 632-5253",-122.3134685832,47.6580569871,"ALADDIN GYRO RESTAURANT","Routine Inspection/Field Review",22,"Unsatisfactory","false","BLUE","5000 - Posting of permit; mobile establishment name...",2,"PR0032509","DA3137876","IV7032663",2
"7395","ALASKA AIRLINES BOARD ROOM","Conc. D - ALASKA BOARD RM","02/07/2022","Seating 151-250 - Risk Category III","SEA-TAC AIRPORT ConD","Seattle","98158","(206) 392-5824",-122.30228,47.44362,"ALASKA AIRLINES BOARD ROOM","Routine Inspection/Field Review",0,"Satisfactory","false","","",0,"PR0015343","DA0BU2RS5","",1
"7455","ALASKA WEATHERVANE SEAFOOD SCALLOP FOOD TRUCK (KC792)","ALASKA WEATHERVANE SEAFOOD SCALLOP FOOD TRUCK (KC792)  @ 253-732-8827","10/02/2021","Mobile Food Unit - Risk Category III","7912 7TH AVE S","SEATTLE","98108","(253) 732-8827",-122.32525,47.53155,"ALASKA WEATHERVANE SEAFOOD SCALLOP FOOD TRUCK (KC792)","Routine Inspection/Field Review",0,"Satisfactory","false","","",0,"PR0088101","DAPYMO1GY","",NA
"7462","ALAZAYEM RESTAURANT","ALAZAYEM RESTAURANT","10/07/2022","Seating 51-150 - Risk Category III","6727 MARTIN LUTHER KING JR WAY S","SEATTLE","98118","(206) 487-9832",-122.2839903,47.5414844,"ALAZAYEM RESTAURANT","Return Inspection",10,"Satisfactory","false","","",0,"PR0084787","DAECGAM1Y","",3
"7468","ALBASHA RESTAURANT","ALBASHA RESTAURANT","09/16/2022","Seating 0-12 - Risk Category III","2302 1ST AVE","SEATTLE","98121","(206) 708-5585",-122.34662193,47.61363231,"ALBASHA RESTAURANT","Routine Inspection/Field Review",0,"Satisfactory","false","","",0,"PR0083314","DAB0WSYXA","",1
"7480","ALBERONA'S DAVINCI PIZZA & PASTA","ALBERONA'S DAVINCI PIZZA & PASTA","06/14/2022","Seating 13-50 - Risk Category III","3624 LEARY WAY NW ","Seattle","98107","(206) 218-3780",-122.3596646022,47.654012074,"ALBERONA'S DAVINCI PIZZA & PASTA","Routine Inspection/Field Review",15,"Unsatisfactory","false","BLUE","3400 - Wiping cloths properly used, stored, proper sanitizer",5,"PR0001456","DACBFX7TA","IVDBSOXJA",2
"7614","ALBERTSONS #3408","BAKERY","06/01/2022","Bakery-no seating - Risk Category II","2550 32ND AVE W ","Seattle","98199","(208) 395-6022",-122.3978807181,47.6424608191,"ALBERTSONS #3408","Consultation/Education - Field",0,"Complete","false","","",0,"PR0018562","DAMQB4AFE","",NA
"7805","ALD SEA FOOD","ALD SEA FOOD","06/08/2022","Seating 0-12 - Risk Category III","17801 INTERNATIONAL BL","SEATTLE","98158","(866) 372-3035",-122.302015,47.44334,"ALD SEA FOOD","Routine Inspection/Field Review",15,"Unsatisfactory","false","BLUE","3400 - Wiping cloths properly used, stored, proper sanitizer",5,"PR0084673","DAMU7WXSV","IVMDAL1JW",1
"7823","ALEBRIJES KITCHEN","ALEBRIJES KITCHEN","","Seating 13-50 - Risk Category III","850 NW 85TH ST ","Seattle","98117","(206) 331-8279",-122.3674416578,47.6908824471,"","",NA,"","","","",0,"PR0043673","","",1
"7824","ALEM RESTAURANT","ALEM RESTAURANT","11/01/2022","Seating 13-50 - Risk Category III","4423 RAINIER AVE S","SEATTLE","98118","(206) 723-3587",-122.2883632448,47.563840045,"ALEM RESTAURANT","Routine Inspection/Field Review",0,"Satisfactory","false","","",0,"PR0067229","DAQKTPHQL","",1
"7940","ALEXANDRAS MACARONS AND CAFE","ALEXANDRAS MACARONS AND CAFE","11/29/2022","Seating 13-50 - Risk Category III","1410 18TH AVE","SEATTLE","98122","(941) 685-9700",-122.3086935428,47.6132622358,"ALEXANDRAS MACARONS AND CAFE","Routine Inspection/Field Review",5,"Satisfactory","false","BLUE","4100 - Warewashing facilities properly installed, maintained, used;",5,"PR0076605","DA0YIDFEF","IVASKNVM9",1
"7961","ALIBERTOS JR FRESH MEXICAN FOOD","ALIBERTOS JR FRESH MEXICAN FOOD","04/21/2022","Seating 51-150 - Risk Category III","2425 4TH AVE S ","SEATTLE","98134","(206) 890-3827",-122.3295727327,47.5810055135,"ALIBERTOS JR FRESH MEXICAN FOOD","Routine Inspection/Field Review",18,"Unsatisfactory","false","BLUE","4900 - Adequate ventilation; lighting; designated area...",2,"PR0002669","DAPVJZA90","IVEL1GOL4",2
"7967","ALIBERTOS JR FRESH MEXICAN FOOD","ALIBERTOS JR FRESH MEXICAN FOOD","","Seating 13-50 - Risk Category III","14300 AURORA AVE N","SEATTLE","98133","(206) 890-3827",-122.34468947,47.73254971,"","",NA,"","","","",0,"PR0090642","","",NA
"7968","ALIBI ROOM, THE","ALIBI ROOM, THE","09/22/2022","Seating 51-150 - Risk Category III","85 PIKE ST ","Seattle","98101","(206) 623-3180",-122.3408145681,47.6083275471,"ALIBI ROOM, THE","Routine Inspection/Field Review",5,"Unsatisfactory","false","RED","0200 - Food Worker Cards current for all food workers; new food workers trained",5,"PR0021122","DAMCJP3JR","IVTRP8S7O",1
"7999","ALJOYA THORNTON PLACE","LILLY'S @ ALJOYA THORNTON PLACE","11/07/2022","Seating 51-150 - Risk Category III","450 NE 100TH ST","SEATTLE","98125","(206) 306-7920",-122.32364249,47.70160238,"ALJOYA THORNTON PLACE","Routine Inspection/Field Review",30,"Unsatisfactory","false","RED","2600 - Compliance with valid permit; operating and risk control plans and required written procedure",10,"PR0080717","DAIBFWD5V","IVAPQ2EWF",2
"8044","ALKI BEACH CAFE","ALKI BEACH CAFE","07/27/2022","Seating 51-150 - Risk Category III","2726 ALKI AVE SW","SEATTLE","98116","(650) 867-9806",-122.4109004153,47.5788326459,"ALKI BEACH CAFE","Consultation/Education - Field",0,"Complete","false","","",0,"PR0010923","DAC8QCYQB","",1
"8049","ALKI BEACH PUB","ALKI BEACH PUB","","Seating 51-150 - Risk Category III","2722 ALKI AVE SW ","SEATTLE","98116","(425) 343-4753",-122.4109070681,47.5788760202,"","",NA,"","","","",0,"PR0044182","","",1
"8062","ALKI CAFE @ SOUTH SEATTLE CULINARY ARTS BLDG","ALKI CAFE @ SOUTH SEATTLE CULINARY ARTS BLDG","","Seating 51-150 - Risk Category II","6000 16TH AVE SW","SEATTLE","98106","(206) 934-6242",-122.3529763,47.55104958,"","",NA,"","","","",0,"PR0089955","","",NA
"8063","ALKI COMMUNITY CENTER","ALKI COMMUNITY CENTER","11/17/2022","Non-Profit Institution - Risk Category III","5817 SW STEVENS ST","Seattle","98116","(206) 684-7430",-122.4069498165,47.5775862226,"ALKI COMMUNITY CENTER","Routine Inspection/Field Review",0,"Satisfactory","false","","",0,"PR0047859","DATOJATY5","",NA
"8112","ALKI ELEMENTARY","ALKI ELEMENTARY","11/17/2022","School Lunch Program - Risk II","3010 59TH AVE SW","Seattle","98116","",-122.4078271254,47.5771417203,"ALKI ELEMENTARY","Routine Inspection/Field Review",0,"Satisfactory","false","","",0,"PR0004200","DAP0SSLN2","",NA
"8147","ALKI MAIL & DISPATCH, INC.","ALKI MAIL & DISPATCH, INC.","04/21/2022","Seating 0-12 - Risk Category I","4701 SW ADMIRAL WAY ","SEATTLE","98116","(206) 932-2556",-122.3920758134,47.580872791,"ALKI MAIL & DISPATCH, INC.","Routine Inspection/Field Review",0,"Satisfactory","false","","",0,"PR0071075","DASWEIA3J","",1
"8168","ALKI MASONIC TEMPLE","ALKI MASONIC TEMPLE","05/17/2022","Seating 51-150 - Risk Category III","4736 40TH AVE SW","Seattle","98116","(206) 938-3554",-122.3824041244,47.5600021535,"ALKI MASONIC TEMPLE","Routine Inspection/Field Review",10,"Unsatisfactory","false","RED","2110 - Proper cold holding temperatures (greater than  45 degrees F)",10,"PR0043629","DAT4MJNWM","IVVKTQM0Y",1
"8198","ALKI PHO & BAR","ALKI PHO & BAR","09/26/2022","Seating 51-150 - Risk Category III","2808 ALKI AVE SW","SEATTLE","98116","(206) 453-4000",-122.4121973765,47.5784554696,"ALKI PHO & BAR","Routine Inspection/Field Review",0,"Satisfactory","false","","",0,"PR0002881","DAUCCM8YB","",1
"8200","ALKI SPUD FISH & CHIPS","ALKI SPUD FISH & CHIPS","06/29/2022","Seating 51-150 - Risk Category III","2666 ALKI AVE SW","SEATTLE","98116","(206) 938-0606",-122.4088102722,47.5794897267,"ALKI SPUD FISH & CHIPS","Consultation/Education - Field",0,"Complete","false","","",0,"PR0002289","DAMNMPHIJ","",1
"8291","All City Coffee","All City Coffee","05/25/2022","Seating 0-12 - Risk Category I","1205 S VALE ST","SEATTLE","98108","(206) 767-7146",-122.3170427448,47.5490477251,"All City Coffee","Routine Inspection/Field Review",10,"Unsatisfactory","false","BLUE","3100 - Proper labeling, signage",5,"PR0066640","DA0QRBWSF","IVBJ8DTLW",2
"8313","ALL STAR GROCERY","ALL STAR GROCERY & VIDEO","02/18/2022","Grocery Store-no seating - Risk Category I","2825 S 200TH ST ","Seattle","98198","",-122.2971039167,47.4223931336,"ALL STAR GROCERY","Routine Inspection/Field Review",5,"Unsatisfactory","false","RED","1400 - Raw meats below and away from ready to eat food; species separated",5,"PR0004618","DATWMUB7D","IVXIDWR0B",NA
"8340","ALLEGRO ESPRESSO BAR","ALLEGRO ESPRESSO BAR","06/13/2022","Seating 13-50 - Risk Category I","4214 UNIVERSITY WAY NE ","Seattle","98105","(206) 633-3030",-122.3128642726,47.6587769102,"ALLEGRO ESPRESSO BAR","Routine Inspection/Field Review",5,"Satisfactory","false","BLUE","3400 - Wiping cloths properly used, stored, proper sanitizer",5,"PR0001063","DAPOVK7MF","IVP85YUXY",1
"8362","ALLENTOWN SUPERETTE","ALLENTOWN SUPERETTE","10/21/2022","Grocery Store-no seating - Risk Category I","12404 42ND AVE S","Seattle","98168","(206) 763-8242",-122.2798362334,47.4922241601,"ALLENTOWN SUPERETTE","Routine Inspection/Field Review",15,"Unsatisfactory","false","RED","0700 - Food obtained from approved source",15,"PR0004315","DANOR1IAB","IVTKTONSN",NA
"8380","ALLEY FOOD AND BEVERAGE, LLC","ALLEY FOOD AND BEVERAGE, LLC","07/29/2019","Seating 51-150 - Risk Category III","900 POPLAR PL S STE F","SEATTLE","98144","(303) 906-4338",-122.31125455,47.59388251,"ALLEY FOOD AND BEVERAGE, LLC","Routine Inspection/Field Review",10,"Unsatisfactory","false","RED","2110 - Proper cold holding temperatures (greater than  45 degrees F)",10,"PR0085604","DACBSNUB0","IVRKDK0ZJ",2
"8399","ALLEY KOREAN RESTAURANT","ALLEY KOREAN RESTAURANT","08/10/2022","Seating 13-50 - Risk Category III","4129 UNIVERSITY WAY NE ","Seattle","98105","",-122.3134513305,47.6577028322,"ALLEY KOREAN RESTAURANT","Return Inspection",20,"Unsatisfactory","false","RED","2110 - Proper cold holding temperatures (greater than  45 degrees F)",10,"PR0018451","DAIJWPYRZ","IVFV1ESWP",2
"8409","ALMANQAL","ALMANQAL","03/23/2022","Seating 13-50 - Risk Category III","1712 N 45TH ST","SEATTLE","98103","(832) 613-7298",-122.3370636765,47.6616290709,"ALMANQAL","Routine Inspection/Field Review",0,"Satisfactory","false","","",0,"PR0054661","DA0L4CLOU","",1
"8489","ALOHA MARKET","ALOHA MARKET","03/08/2022","Grocery Store-no seating - Risk Category I","7762 BEACON AVE S","SEATTLE","98118","(206) 201-4938",-122.28847008,47.53265788,"ALOHA MARKET","Routine Inspection/Field Review",0,"Satisfactory","false","","",0,"PR0017894","DA9CGJSBQ","",NA
"8490","ALOHA PLATES","ALOHA PLATES","03/10/2022","Seating 0-12 - Risk Category III","600 5TH AVE S STE 511","SEATTLE","98104","(253) 282-0060",-122.3274321733,47.5974908372,"ALOHA PLATES","Routine Inspection/Field Review",5,"Unsatisfactory","false","RED","1720 - Proper hot holding temperatures; between 130 degrees F to 134 degrees F",5,"PR0068153","DAQLNZPWB","IVK300PSY",1
"8530","ALPHA CHI OMEGA","ALPHA CHI OMEGA","05/03/2022","Seating 51-150 - Risk Category III","4545 17TH AVE NE ","Seattle","98105","(206) 525-9104",-122.3100219433,47.6625452899,"ALPHA CHI OMEGA","Routine Inspection/Field Review",15,"Unsatisfactory","false","BLUE","3300 - Potential food contamination prevented during delivery,  preparation, storage, display",5,"PR0001064","DABT8TB56","IV9QBOXN3",1
"8576","ALPHA DELTA PHI FRATERNITY","ALPHA DELTA PHI FRATERNITY","05/31/2022","Seating 51-150 - Risk Category III","2106 NE 47TH ST","SEATTLE","98105","(206) 948-6097",-122.305068,47.663283,"ALPHA DELTA PHI FRATERNITY","Routine Inspection/Field Review",0,"Satisfactory","false","","",0,"PR0077549","DA1YHRZKI","",1
"8610","ALPHA DELTA PI","ALPHA DELTA PI","05/26/2022","Seating 151-250 - Risk Category III","1805 NE 47TH ST ","Seattle","98105","(206) 522-8137",-122.3081271056,47.6628701978,"ALPHA DELTA PI","Routine Inspection/Field Review",5,"Satisfactory","false","BLUE","3300 - Potential food contamination prevented during delivery,  preparation, storage, display",5,"PR0001066","DA0OMCOLT","IVJ2B7YKF",1
"8656","ALPHA GAMMA DELTA","ALPHA GAMMA DELTA","06/01/2022","Seating 13-50 - Risk Category III","4510 21ST AVE NE ","Seattle","98105","(206) 527-2351",-122.3051092334,47.6616626223,"ALPHA GAMMA DELTA","Routine Inspection/Field Review",17,"Satisfactory","false","BLUE","3400 - Wiping cloths properly used, stored, proper sanitizer",5,"PR0001068","DAS4DDSV7","IVHWA0RY6",1
"8703","ALPHA PHI","ALPHA PHI","02/09/2022","Seating 13-50 - Risk Category III","4710 19TH AVE NE ","Seattle","98105","(916) 687-7700",-122.3068752935,47.6632945684,"ALPHA PHI","Routine Inspection/Field Review",20,"Unsatisfactory","false","BLUE","4200 - Food-contact surfaces maintained, clean, sanitized",5,"PR0001070","DASGY1JJ1","IVRNZ9YNP",1
"8761","ALPHA SIGMA PHI","ALPHA SIGMA PHI","01/26/2022","Seating 51-150 - Risk Category III","4554 19TH AVE NE ","Seattle","98105","",-122.3068805299,47.662804353,"ALPHA SIGMA PHI","Routine Inspection/Field Review",10,"Unsatisfactory","false","RED","2110 - Proper cold holding temperatures (greater than  45 degrees F)",10,"PR0001071","DAMJVNCRG","IVMVHZZDQ",1
"8811","ALPHA XI DELTA","ALPHA XI DELTA","06/01/2022","Seating 51-150 - Risk Category III","1616 NE 50TH ST ","SEATTLE","98105","(206) 522-2968",-122.3100929494,47.6650685977,"ALPHA XI DELTA","Routine Inspection/Field Review",10,"Satisfactory","false","BLUE","3400 - Wiping cloths properly used, stored, proper sanitizer",5,"PR0001072","DA1GHOTNN","IVQF0U3EM",1
"8864","ALSTADT LLC","ALSTADT LLC","04/13/2022","Seating 51-150 - Risk Category III","209 1ST AVE S STE A","SEATTLE","98104","(206) 683-3056",-122.33458063,47.60050345,"ALSTADT LLC","Consultation/Education - Field",0,"Complete","false","","",0,"PR0083598","DA0JX5V3X","",1
"8895","ALTURA","ALTURA","04/19/2021","Seating 13-50 - Risk Category III","617 BROADWAY AVE E","SEATTLE","98102","(206) 417-4628",-122.321160151,47.6248978878,"ALTURA","Routine Inspection/Field Review",0,"Satisfactory","false","","",0,"PR0081662","DAXQH3DBK","",1
"8918","ALUEL CELLARS","ALUEL CELLARS","08/18/2022","Seating 0-12 - Risk Category II","801 E THOMAS ST STE A","SEATTLE","98102","(425) 420-7335",-122.32199877,47.62093587,"ALUEL CELLARS","Routine Inspection/Field Review",0,"Satisfactory","false","","",0,"PR0086307","DAZRH0DGZ","",1
"8919","ALUEL CELLARS","ALUEL CELLARS","07/06/2022","Seating 13-50 - Risk Category II","1528 NW MARKET ST","SEATTLE","98107","(425) 420-7335",-122.37789045,47.6689047,"ALUEL CELLARS","Routine Inspection/Field Review",0,"Satisfactory","false","","",0,"PR0090385","DAUSER8LX","",1
"8978","AM PM MINI MART","AM PM MINI MART","11/08/2022","Seating 0-12 - Risk Category III","14424 GREENWOOD AVE N ","Seattle","98133","(206) 361-8333",-122.3551452045,47.7338417851,"AM PM MINI MART","Routine Inspection/Field Review",0,"Satisfactory","false","","",0,"PR0001783","DALKQCWM0","",1
"9023","AM-PM MINI MART","AM-PM MINI MART","02/08/2022","Seating 0-12 - Risk Category III","10822 ROOSEVELT WAY NE ","Seattle","98125","",-122.3173330701,47.7082941159,"AM-PM MINI MART","Routine Inspection/Field Review",0,"Satisfactory","false","","",0,"PR0001677","DAP9LPKUH","",1
"9242","AMAZING THAI CUISINE","AMAZING THAI CUISINE","06/08/2022","Seating 13-50 - Risk Category III","5210 ROOSEVELT WAY NE #B ","Seattle","98105","(206) 409-7654",-122.3170701077,47.6667911084,"AMAZING THAI CUISINE","Routine Inspection/Field Review",20,"Unsatisfactory","false","BLUE","3200 - Insects, rodents, animals not present; entrance controlled.",5,"PR0014115","DAN0QYWZV","IVFEK4PK0",2
"9295","AMAZON","SHIRLEY @ AMAZON","11/29/2022","Seating 51-150 - Risk Category III","300 PINE ST","SEATTLE","98101","(206) 549-4615",-122.33835,47.61116,"AMAZON","Routine Inspection/Field Review",0,"Satisfactory","false","","",0,"PR0087524","DAZDHGING","",1
"9297","AMAZON","AMAZON - Block 18, Level 2, Station 1","10/13/2021","Seating 0-12 - Risk Category III","2205 7TH AVE","SEATTLE","98121","(808) 429-5007",-122.34068281,47.61672881,"AMAZON","Routine Inspection/Field Review",0,"Satisfactory","false","","",0,"PR0089302","DASWC1WRW","",1
"9324","AMAZON BLOCK 14 (THE MEETING CENTER) LEVEL G","Amazon Block 14 Level G","11/19/2019","Caterer - Risk Category III","2031 7TH AVE","SEATTLE","98121","(206) 445-4637",-122.33854211,47.61541131,"AMAZON BLOCK 14 (THE MEETING CENTER) LEVEL G","Routine Inspection/Field Review",0,"Satisfactory","false","","",0,"PR0087213","DACYU7JDY","",NA
"9335","AMAZON BLOCK 19","AMAZON BLOCK 19 TOWER-LEVEL G & LEVEL 6-K2 KITCHEN & 6TH FL STAGING","09/17/2019","Seating 13-50 - Risk Category III","2101 7TH AVE","SEATTLE","98121","(734) 320-1846",-122.33923703,47.61579252,"AMAZON BLOCK 19","Routine Inspection/Field Review",0,"Satisfactory","false","","",0,"PR0086336","DAZSIXDCX","",1
"9342","AMAZON BLOCK 19 TOWER-ELM COFFEE SHOP","AMAZON BLOCK 19 TOWER","07/28/2022","Seating 51-150 - Risk Category III","2121 7TH AVE","SEATTLE","98121","(704) 328-5090",-122.33951724,47.61598921,"AMAZON BLOCK 19 TOWER-ELM COFFEE SHOP","Routine Inspection/Field Review",0,"Satisfactory","false","","",0,"PR0086136","DAV1CVOYC","",1
"9350","AMAZON BLOCK 20 - LEVEL - Cold & Dry Storage/Market (Plan A)","AMAZON BLOCK 20 - LEVEL Cold & Dry Storage/Market (Plan A)","03/16/2022","Seating 0-12 - Risk Category I","2121 8TH AVE","SEATTLE","98121","(206) 266-0810",-122.33874,47.61629,"AMAZON BLOCK 20 - LEVEL - Cold & Dry Storage/Market (Plan A)","Routine Inspection/Field Review",0,"Satisfactory","false","","",0,"PR0088302","DASKODZEY","",1
"9360","AMAZON BLOCK 21","AMAZON BLOCK 21 - COMMON SERVERY - Level 3","03/10/2022","Seating 151-250 - Risk Category III","2200 7TH AVE","SEATTLE","98121","(206) 266-0810",-122.34015,47.61697,"AMAZON BLOCK 21","Routine Inspection/Field Review",0,"Satisfactory","false","","",0,"PR0088763","DAB0FDJZI","",1
"9382","AMAZON FRESH- UWA4","AMAZON FRESH- UWA4","03/01/2022","Grocery Store-no seating - Risk Category I","2401 UTAH AVE S","SEATTLE","98134","(206) 740-8467",-122.3359182,47.58090105,"AMAZON FRESH- UWA4","Routine Inspection/Field Review",0,"Satisfactory","false","","",0,"PR0085918","DAO1HFEEU","",NA
"9386","AMAZON GO","AMAZON GO","05/19/2022","Seating 0-12 - Risk Category III","1122 MADISON ST","SEATTLE","98104","(425) 301-9541",-122.32442655,47.60991393,"AMAZON GO","Routine Inspection/Field Review",0,"Satisfactory","false","","",0,"PR0088518","DA8IB9OFN","",1
"9391","AMAZON RETAIL LLC","AMAZON RETAIL- MARKET W PRODUCE","10/25/2022","Grocery Store-no seating - Risk Category II","13201 AURORA AVE N STE B","SEATTLE","98133","(206) 413-4045",-122.34699268,47.72558082,"AMAZON RETAIL LLC","Routine Inspection/Field Review",0,"Satisfactory","false","","",0,"PR0089897","DAOMHJP8M","",NA
"9396","AMAZON RETAIL LLC","AMAZON RETAIL LLC","03/04/2022","Seating 0-12 - Risk Category II","610 E PIKE ST","SEATTLE","98122","",-122.32421,47.61428,"AMAZON RETAIL LLC","Routine Inspection/Field Review",5,"Unsatisfactory","false","RED","1400 - Raw meats below and away from ready to eat food; species separated",5,"PR0088564","DANFM30KK","IVEJQ9MDQ",1
"9402","AMAZON RETAIL LLC - ISE1","AMAZON RETAIL LLC","04/07/2022","Grocery Store-no seating - Risk Category I","2131 7TH AVE","SEATTLE","98121","(206) 765-3457",-122.33993046,47.61625482,"AMAZON RETAIL LLC - ISE1","Routine Inspection/Field Review",0,"Satisfactory","false","","",0,"PR0086415","DAI2TSYIZ","",NA
"9415","AMAZON RETAIL LLC - MAB6","AMAZON RETAIL LLC","08/24/2022","Grocery Store-no seating - Risk Category II","2309 S JACKSON ST","SEATTLE","98144","(206) 478-0844",-122.30164478,47.59881898,"AMAZON RETAIL LLC - MAB6","Consultation/Education - Field",0,"Complete","false","","",0,"PR0089091","DALC1FPON","",NA
"9424","AMAZON RETAIL LLC - NESSIE","AMAZON RETAIL LLC - NESSIE","08/31/2022","Seating 0-12 - Risk Category III","500 9th AVE N","SEATTLE","98109","(206) 740-8467",-122.33928614,47.62360207,"AMAZON RETAIL LLC - NESSIE","Routine Inspection/Field Review",0,"Satisfactory","false","","",0,"PR0086890","DAOPKEE0U","",1
"9429","AMAZON RETAIL LLC-ISE6","AMAZON RETAIL LLC-ISE6","08/26/2022","Seating 0-12 - Risk Category III","300 BOREN AVE N","SEATTLE","98109","(206) 740-8467",-122.3351923,47.62120128,"AMAZON RETAIL LLC-ISE6","Routine Inspection/Field Review",0,"Satisfactory","false","","",0,"PR0087511","DAUSXYHXD","",1
"9432","AMAZON RETAIL LLC. - MAC8","AMAZON RETAIL LLC. - MAC8","","Grocery Store-no seating - Risk Category II","951 NW Ballard WAY","Seattle","98107","",-122.37030945,47.66261327,"","",NA,"","","","",0,"PR0089396","","",NA
"9433","AMAZON RETAIL, LLC","AMAZON RETAIL, LLC","10/12/2022","Seating 0-12 - Risk Category III","1906 TERRY AVE","SEATTLE","98101","(206) 740-8467",-122.33360167,47.616658,"AMAZON RETAIL, LLC","Routine Inspection/Field Review",0,"Satisfactory","false","","",0,"PR0088806","DA8O4I0M7","",1
"9435","AMAZON RETAIL, LLC","AMAZON RETAIL, LLC","","Seating 0-12 - Risk Category III","1423 4TH AVE","SEATTLE","98101","(425) 301-9541",-122.33659912,47.60966691,"","",NA,"","","","",0,"PR0089298","","",NA
"9436","AMAZON RETAIL, LLC - ISE7","AMAZON RETAIL, LLC - ISE7","05/03/2022","Seating 0-12 - Risk Category III","920 5TH AVE","SEATTLE","98104","(912) 659-3473",-122.33132214,47.60651159,"AMAZON RETAIL, LLC - ISE7","Routine Inspection/Field Review",0,"Satisfactory","false","","",0,"PR0087606","DAHEB5JT0","",1
"9448","AMAZON-CAFE MOBY","AMAZON-CAFE MOBY","09/19/2022","Seating 0-12 - Risk Category III","202 WESTLAKE AVE N","SEATTLE","98109","(206) 266-0839",-122.338127,47.619992,"AMAZON-CAFE MOBY","Routine Inspection/Field Review",0,"Satisfactory","false","","",0,"PR0083428","DAYKDFLJJ","",1
"9481","AMBROSIA","AMBROSIA","09/29/2022","Seating 13-50 - Risk Category II","6951 M L KING JR WAY S STE 110","SEATTLE","98118","(206) 604-2578",-122.282935,47.539304,"AMBROSIA","Routine Inspection/Field Review",20,"Unsatisfactory","false","BLUE","3300 - Potential food contamination prevented during delivery,  preparation, storage, display",5,"PR0083603","DANU02YXD","IVZJ3ICM0",2
"9606","AMC THEATRES OAKTREE 6","AMC THEATRES OAKTREE 6","11/14/2022","Seating 0-12 - Risk Category III","10006 AURORA AVE N ","Seattle","98133","(913) 213-2000",-122.3424882681,47.7018684437,"AMC THEATRES OAKTREE 6","Routine Inspection/Field Review",0,"Satisfactory","false","","",0,"PR0012396","DABYR9WJP","",1
"9629","AMC THEATRES PACIFIC PLACE II","PACIFIC PLACE II / LOWER LEVEL","11/16/2022","Seating 0-12 - Risk Category III","600 PINE ST ","SEATTLE","98101","",-122.3353130215,47.6128922539,"AMC THEATRES PACIFIC PLACE II","Routine Inspection/Field Review",0,"Satisfactory","false","","",0,"PR0052132","DAL4YW6FQ","",1
"9723","AMC THEATRES SEATTLE 10","AMC THEATRES SEATTLE 10","08/15/2022","Seating 13-50 - Risk Category III","4500 9TH AVE NE","Seattle","98105","(913) 213-2000",-122.3180742419,47.6617409644,"AMC THEATRES SEATTLE 10","Routine Inspection/Field Review",15,"Unsatisfactory","false","BLUE","4100 - Warewashing facilities properly installed,...",5,"PR0019093","DAYCYO7P3","IVPTGL1QQ",2
"9802","American Hotel-Hostelling Int'l","American Hotel-Hostelling Int'l","10/05/2022","Grocery Store-no seating - Risk Category I","520 S King ST ","SEATTLE","98104","(206) 622-5443",-122.32672768,47.59848547,"American Hotel-Hostelling Int'l","Routine Inspection/Field Review",0,"Satisfactory","false","","",0,"PR0079761","DABEO0URK","",NA
"9841","AMERICANA","AMERICANA","07/11/2022","Seating 51-150 - Risk Category III","219 BROADWAY AVE E","SEATTLE","98102","",-122.3211199818,47.620142678,"AMERICANA","Routine Inspection/Field Review",15,"Unsatisfactory","false","RED","0600 - Adequate handwashing facilities",10,"PR0026186","DASA64QXR","IV8TEXT07",2
"9843","AMERICANO INC","AMERICANO INC","05/17/2021","Seating 13-50 - Risk Category III","2818 Thorndyke AVE W","SEATTLE","98199","(206) 336-5411",-122.382486,47.645216,"AMERICANO INC","Routine Inspection/Field Review",0,"Satisfactory","false","","",0,"PR0079693","DABT5AKKF","",1
"9856","AmEx Centurion Studio @ Seattle Tacoma Airport","AmEx Centurion Studio @ Seattle Tacoma Airport","07/06/2022","Seating 151-250 - Risk Category III","17801 International BL Term B","Seattle","98158","(704) 328-6604",-122.302146,47.443015,"AmEx Centurion Studio @ Seattle Tacoma Airport","Routine Inspection/Field Review",0,"Satisfactory","false","","",0,"PR0090254","DAMQU7JO2","",1
"9857","AMMANA HOUSEWARE AND GROCERY, LLC","AMMANA HOUSEWARE & GROCERY","07/27/2022","Meat/Sea Food - Risk Category III","5503 M L KING JR WAY S","SEATTLE","98118","(206) 422-3814",-122.288892643,47.5523005192,"AMMANA HOUSEWARE AND GROCERY, LLC","Routine Inspection/Field Review",0,"Satisfactory","false","","",0,"PR0081678","DAYE9DUYW","",NA
"9983","AMPERSAND CAFE - ALKI","AMPERSAND CAFE - ALKI","10/18/2022","Mobile Food Unit - Risk Category III","2536 ALKI AVE SW ","SEATTLE","98116","(206) 617-3097",-122.4068035827,47.5803730734,"AMPERSAND CAFE - ALKI","Routine Inspection/Field Review",0,"Satisfactory","false","","",0,"PR0077246","DACBR5RBU","",NA
"10027","AN NAM PHO","AN NAM PHO","04/14/2022","Seating 13-50 - Risk Category III","6510 ROOSEVELT WAY NE","SEATTLE","98115","",-122.317036,47.67629,"AN NAM PHO","Routine Inspection/Field Review",10,"Unsatisfactory","false","RED","2110 - Proper cold holding temperatures (greater than  45 degrees F)",10,"PR0083352","DAQSFN0BU","IVIRN40VZ",2
"10049","ANALOG COFFEE","ANALOG COFFEE","04/20/2022","Seating 0-12 - Risk Category I","235 SUMMIT AVE E","SEATTLE","98102","(206) 661-4794",-122.32554946,47.62067134,"ANALOG COFFEE","Routine Inspection/Field Review",0,"Satisfactory","false","","",0,"PR0081339","DA95GDFGA","",1
"10064","ANAR","ANAR","10/28/2021","Seating 13-50 - Risk Category III","2040 6TH AVE","SEATTLE","98121","(206) 906-9606",-122.33866948,47.61502235,"ANAR","Routine Inspection/Field Review",0,"Satisfactory","false","","",0,"PR0085478","DAMBXWXVM","",1
"10082","ANCHORED SHIP COFFEE BAR","ANCHORED SHIP COFFEE BAR","10/28/2022","Seating 0-12 - Risk Category II","5306 BALLARD AVE NW ","SEATTLE","98107","(206) 954-9215",-122.383208704,47.6667830434,"ANCHORED SHIP COFFEE BAR","Routine Inspection/Field Review",5,"Unsatisfactory","false","RED","0200 - Food Worker Cards current for all food workers; new food workers trained",5,"PR0066914","DALMJ3OIU","IVABMRH1K",1
"10107","ANCHORHEAD COFFEE","ANCHORHEAD COFFEE","05/13/2022","Seating 13-50 - Risk Category II","1600 7TH AVE STE #105","SEATTLE","98101","(206) 963-6237",-122.33463,47.613333,"ANCHORHEAD COFFEE","Routine Inspection/Field Review",0,"Satisfactory","false","","",0,"PR0086205","DA1XHQSVB","",1
"10120","ANCHORHEAD COFFEE AND BAKERY","ANCHORHEAD COFFEE AND BAKERY","11/09/2022","Seating 13-50 - Risk Category III","1115 12TH AVE ","SEATTLE","98122","(206) 963-6237",-122.3171956776,47.6119540728,"ANCHORHEAD COFFEE AND BAKERY","Routine Inspection/Field Review",20,"Unsatisfactory","false","RED","1500 - Proper preparation of raw shell eggs",5,"PR0076872","DANLYDYOP","IV6QHIHRJ",2
"10124","ANCHORHEAD COFFEE PIKE PLACE","ANCHORHEAD COFFEE PIKE PLACE","03/24/2022","Seating 13-50 - Risk Category II","2203 WESTERN AVE STE 110A","SEATTLE","98121","(206) 963-6237",-122.34654,47.61198,"ANCHORHEAD COFFEE PIKE PLACE","Routine Inspection/Field Review",0,"Satisfactory","false","","",0,"PR0089124","DAFCEXM4S","",1
"10218","ANGEL CITY DELI","ANGEL CITY DELI","05/25/2022","Seating 0-12 - Risk Category III","12621 RENTON AVE S #C","SEATTLE","98178","(206) 772-2223",-122.2398031,47.49063666,"ANGEL CITY DELI","Routine Inspection/Field Review",0,"Satisfactory","false","","",0,"PR0083286","DA7U7LIYB","",1
"10317","ANGELINE'S MEXICAN STORE LLC","ANGELINE'S MEXICAN STORE LLC","02/18/2022","Grocery Store-no seating - Risk Category I","5041 RAINIER AVE S STE 102","SEATTLE","98118","(206) 209-7502",-122.28409286,47.55598493,"ANGELINE'S MEXICAN STORE LLC","Routine Inspection/Field Review",0,"Satisfactory","false","","",0,"PR0084797","DAPAWCYID","",NA
"10405","ANGELOS","ANGELOS","09/30/2019","Seating 51-150 - Risk Category III","601 SW 153RD ST ","Seattle","98166","(206) 244-3555",-122.3421671636,47.4656611014,"ANGELOS","Routine Inspection/Field Review",8,"Satisfactory","false","BLUE","4300 - Non-food contact surfaces maintained and clean",3,"PR0004319","DATAC0BUD","IVKDTO0IV",1
"10460","ANGKOR WOK","ANGKOR WOK","09/01/2022","Seating 51-150 - Risk Category III","1100 NE 45TH ST STE 110","SEATTLE","98105","(425) 442-2608",-122.31623981,47.66154924,"ANGKOR WOK","Consultation/Education - Field",0,"Complete","false","","",0,"PR0088793","DAQFBUSEK","",1
"10461","ANGRY BEAVER","ANGRY BEAVER","03/15/2022","Seating 51-150 - Risk Category III","8412 GREENWOOD AVE N","Seattle","98103","(206) 437-8524",-122.3549535174,47.6903007881,"ANGRY BEAVER","Consultation/Education - Field",0,"Complete","false","","",0,"PR0008265","DA5TVYKYD","",1
"10499","ANH SHENH","ANH SHENH","05/19/2022","Grocery Store-no seating - Risk Category I","1041 S KING ST","SEATTLE","98104","(206) 323-2528",-122.31778912,47.59816143,"ANH SHENH","Routine Inspection/Field Review",5,"Satisfactory","false","BLUE","3300 - Potential food contamination prevented during delivery,  preparation, storage, display",5,"PR0088505","DA9HOIM7P","IVRLXSDVO",NA
"10502","ANIMATED CAFE","ANIMATED CAFE","11/16/2022","Mobile Food Unit - Risk Category II","10231 16th AVE SW","SEATTLE","98146","(720) 437-0406",-122.3554399,47.51088424,"ANIMATED CAFE","Routine Inspection/Field Review",5,"Satisfactory","false","BLUE","3400 - Wiping cloths properly used, stored, sanitizer concentration",5,"PR0090162","DAQZT60VO","IVRNLYQI7",NA
"10567","ANITA'S MEXICAN FOOD (KC458)","ANITA'S MEXICAN FOOD @ 12245 AURORA AVE N SEATTLE","04/27/2022","Mobile Food Unit - Risk Category III","10334 AURORA AVE N","SEATTLE","98133","(206) 856-0845",-122.34438137,47.7043925,"ANITA'S MEXICAN FOOD (KC458)","Routine Inspection/Field Review",10,"Unsatisfactory","false","RED","1400 - Raw meats below and away from ready to eat food; species separated",5,"PR0085550","DA8PNMHW0","IVMBPACEW",NA
"10627","ANNAPURNA CAFE","ANNAPURNA CAFE","03/11/2021","Seating 51-150 - Risk Category III","1833 BROADWAY AVE ","SEATTLE","98122","(206) 322-6473",-122.3210853891,47.6179631503,"ANNAPURNA CAFE","Routine Inspection/Field Review",38,"Unsatisfactory","false","BLUE","4300 - Non-food contact surfaces maintained and clean",3,"PR0011133","DAUOCOWNE","IV0WEGPRX",2
"10701","ANTHONY'S FISH BAR","ANTHONY'S FISH BAR","03/31/2022","Seating 13-50 - Risk Category III","2201 ALASKAN WAY ","Seattle","98121","(206) 448-6688",-122.3490102929,47.6114353228,"ANTHONY'S FISH BAR","Consultation/Education - Field",0,"Complete","false","","",0,"PR0047368","DALS1CLGC","",1
"10942","ANTOJITAS LITA ROSITA (KC576)","ANTOJITAS LITA ROSITA@1660 S ROBERTO MAESTAS FESTIVAL","10/29/2021","Mobile Food Unit - Risk Category III","2524 16TH AVE","SEATTLE","98144","(206) 245-8230",-122.31132041,47.58033806,"ANTOJITAS LITA ROSITA (KC576)","Routine Inspection/Field Review",0,"Satisfactory","false","","",0,"PR0086605","DAO0UY0ZF","",NA
"10980","ANTOJITOS Y MAS","ANOJITOS Y MAS","","Mobile Food Unit - Risk Category III","5600 DELRIDGE WAY","SEATTLE","98106","(206) 251-5641",-122.12212119,47.6173309,"","",NA,"","","","",0,"PR0089475","","",NA
"10989","ANTOJOS JALISCO","ANTOJOS JALISCO @ 206 578 0218","","Mobile Food Unit - Risk Category III","18415 190th ST","SEATTLE","98168","(206) 578-0218",-122.28542912,47.49093771,"","",NA,"","","","",0,"PR0087969","","",NA
"10990","ANTOJOS JALISCO LLC","ANTOJOS JALISCO LLC@1841 S 120TH ST SEATTLE 98168","","Mobile Food Unit - Risk Category III","1841 S 120TH ST E","SEATTLE","98168","(206) 816-5380",-122.3767813798,47.6652149019,"","",NA,"","","","",0,"PR0076675","","",NA
"11003","AOKI SUSHI & GRILL","AOKI SUSHI & GRILL","","Seating 51-150 - Risk Category III","621 BROADWAY AVE E ","SEATTLE","98102","(253) 740-1210",-122.3211831393,47.6244448582,"","",NA,"","","","",0,"PR0012004","","",1
"11068","APOLLO  MARKET","APOLLO  MARKET","10/24/2022","Seating 0-12 - Risk Category III","325 9TH AVE N","SEATTLE","98109","",-122.34014817,47.62154292,"APOLLO  MARKET","Routine Inspection/Field Review",0,"Satisfactory","false","","",0,"PR0088374","DAQAU0DI9","",1
"11208","APPLEBEE'S NEIGHBORHOOD GRILL & BAR","APPLEBEE'S NEIGHBORHOOD GRILL","11/16/2022","Seating 151-250 - Risk Category III","17790 SOUTHCENTER PKWY ","SEATTLE","98188","(503) 722-2825",-122.2608907242,47.4436676914,"APPLEBEE'S NEIGHBORHOOD GRILL & BAR","Routine Inspection/Field Review",0,"Satisfactory","false","","",0,"PR0020488","DAYL0DHKY","",1
"11482","APSARA PALACE","APSARA PALACE","","Seating 13-50 - Risk Category III","9808 14TH AVE SW","SEATTLE","98106","(206) 670-7759",-122.3526043819,47.5151826729,"","",NA,"","","","",0,"PR0052206","","",1
"11483","AQUA BY EL GAUCHO","AQUA BY EL GAUCHO","08/26/2021","Seating 51-150 - Risk Category III","2801 ALASKAN WAY","SEATTLE","98121","",-122.35566,47.61472,"AQUA BY EL GAUCHO","Consultation/Education - Field",0,"Complete","false","","",0,"PR0066594","DAR6Y0UZR","",2
"11531","AQUARIUM CAFE @ SODEXO","AQUARIUM CAFE @ SODEXO","01/10/2022","Seating 51-150 - Risk Category III","1483 ALASKAN WAY ","SEATTLE","98101","(206) 239-9609",-122.3424244521,47.6078803354,"AQUARIUM CAFE @ SODEXO","Routine Inspection/Field Review",0,"Satisfactory","false","","",0,"PR0076789","DAGNRWDNA","",1
"11567","ARAMARK  @ CONVENTION PLACE","CATERER","10/21/2022","Caterer - Risk Category III","800 CONVENTION PL ","Seattle","98101","(206) 694-5088",-122.3316780268,47.6117737434,"ARAMARK  @ CONVENTION PLACE","Routine Inspection/Field Review",0,"Satisfactory","false","","",0,"PR0018288","DAB0BEHST","",NA
"11569","ARAMARK  @ CONVENTION PLACE","""FLEX B""","04/19/2019","Seating 13-50 - Risk Category II","800 CONVENTION PL 4TH FLOOR","SEATTLE","98101","(206) 694-5090",-122.331678,47.611774,"ARAMARK  @ CONVENTION PLACE","Routine Inspection/Field Review",0,"Satisfactory","false","","",0,"PR0084592","DA7P0H9JY","",1
"11692","ARAMARK @ WASH. STATE CONV. & TRADE CENTER","ARAMARK @ WSCC - STAGING KITCHENS","04/19/2019","Seating > 250 - Risk Category III","800 CONVENTION PL","SEATTLE","98101","",-122.33167802,47.61177374,"ARAMARK @ WASH. STATE CONV. & TRADE CENTER","Routine Inspection/Field Review",0,"Satisfactory","false","","",0,"PR0080723","DARIWZHQD","",1
"11715","ARASHI RAMEN","ARASHI RAMEN","09/08/2022","Seating 13-50 - Risk Category III","5401 20TH AVE NW","Seattle","98107","(206) 492-7933",-122.3823148512,47.6677580711,"ARASHI RAMEN","Routine Inspection/Field Review",5,"Satisfactory","false","BLUE","3400 - Wiping cloths properly used, stored, proper sanitizer",5,"PR0001917","DAHHSTNVR","IVH70JH0O",1
"11754","ARAYA'S PLACE","ARAYA'S PLACE","07/25/2022","Seating 13-50 - Risk Category III","2808 E MADISON ST ","SEATTLE","98112","(206) 723-4545",-122.2960453563,47.6238184337,"ARAYA'S PLACE","Routine Inspection/Field Review",25,"Unsatisfactory","false","RED","2000 - Proper reheating procedures for hot holding",15,"PR0011620","DAYIGRIE3","IVS3UGM3F",2
"11756","ARAYA'S PLACE","ARAYA'S PLACE","04/14/2022","Seating 51-150 - Risk Category III","5240 UNIVERSITY WAY NE #A","SEATTLE","98105","(206) 225-7442",-122.31267798,47.66761667,"ARAYA'S PLACE","Routine Inspection/Field Review",15,"Unsatisfactory","false","BLUE","4200 - Food-contact surfaces maintained, clean, sanitized",5,"PR0083048","DANN0YB2T","IVCXHPTNB",2
"11918","ARBOR HEIGHTS ELEMENTARY SCHOOL","ARBOR HEIGHTS ELEMENTARY SCHOOL","11/01/2022","School Lunch Program - Risk II","3701 SW 104TH ST","SEATTLE","98146","(206) 252-0685",-122.378093,47.509517,"ARBOR HEIGHTS ELEMENTARY SCHOOL","Routine Inspection/Field Review",0,"Satisfactory","false","","",0,"PR0086125","DAKGQZY2R","",NA
"12131","ARBY'S 502","ARBY'S 502","10/07/2022","Seating 51-150 - Risk Category III","15822 1ST AVE S ","Seattle","98148","(253) 292-6907",-122.3334889859,47.4612942913,"ARBY'S 502","Routine Inspection/Field Review",0,"Satisfactory","false","","",0,"PR0004324","DAYXHA8TB","",1
"12159","ARC","ARC","09/15/2022","Seating 13-50 - Risk Category III","6114 PHINNEY AVE N","Seattle","98103","(480) 829-7975",-122.3540616725,47.6736761857,"ARC","Routine Inspection/Field Review",0,"Satisfactory","false","","",0,"PR0017322","DAQCHQHC0","",1
"12275","ARCHIPELAGO","ARCHIPELAGO","09/30/2022","Seating 0-12 - Risk Category III","5607 RAINIER AVE S","SEATTLE","98118","(360) 521-8758",-122.2782189,47.55169319,"ARCHIPELAGO","Routine Inspection/Field Review",0,"Satisfactory","false","","",0,"PR0087990","DAC0KTSJJ","",1
"12370","ARCO AM / PM #7013","ARCO AM / PM #7013","10/18/2022","Seating 0-12 - Risk Category III","5620 M L KING JR WAY S ","Seattle","98118","(909) 293-7588",-122.2876036423,47.5514622848,"ARCO AM / PM #7013","Consultation/Education - Field",0,"Complete","false","","",0,"PR0011123","DAWBBVCCT","",1
"12381","ARCO AM PM","ARCO AM PM","08/10/2022","Seating 0-12 - Risk Category III","950 N 85TH ST ","SEATTLE","98103","(425) 835-2885",-122.3451234152,47.690864155,"ARCO AM PM","Routine Inspection/Field Review",0,"Satisfactory","false","","",0,"PR0010852","DAURMFLEJ","",1
"12394","ARCO AM/PM","ARCO AM/PM","05/04/2022","Seating 0-12 - Risk Category III","665 23RD AVE","Seattle","98122","(206) 860-2171",-122.303241,47.607812,"ARCO AM/PM","Routine Inspection/Field Review",10,"Unsatisfactory","false","RED","2110 - Proper cold holding temperatures (greater than  45 degrees F)",10,"PR0016686","DAFDRIBBC","IVXR0OC0S",1
"12808","ARENA AT SEATTLE CENTER","ARENA AT SEATTLE CENTER- MAIN CONCOURSE PORTABLE 12","08/29/2022","Mobile Food Unit - Risk Category I","334 1ST AVE N","SEATTLE","98109","(206) 437-1240",-122.35458006,47.62250374,"ARENA AT SEATTLE CENTER","Routine Inspection/Field Review",0,"Satisfactory","false","","",0,"PR0089971","DANBHVMXH","",NA
"12883","ARENA SPORTS","ARENA SPORTS","03/08/2022","Seating 0-12 - Risk Category I","7751 63RD AVE NE","SEATTLE","98115","(425) 849-6285",-122.26328928,47.68691309,"ARENA SPORTS","Routine Inspection/Field Review",0,"Satisfactory","false","","",0,"PR0080955","DAGUT1M0C","",1
"12927","ARENA SPORTS SEATTLE LLC","ARENA SPORTS SEATTLE LLC","06/30/2022","Seating 51-150 - Risk Category I","4636 E MARGINAL WAY S","SEATTLE","98134","(206) 762-8606",-122.33873623,47.56221028,"ARENA SPORTS SEATTLE LLC","Routine Inspection/Field Review",0,"Satisfactory","false","","",0,"PR0086585","DASNQIJNC","",1
"12931","AREPA VENEZUELAN KITCHEN","AREPA VENEZUELAN KITCHEN","03/17/2022","Seating 13-50 - Risk Category III","1405 NE 50TH ST","SEATTLE","98105","(425) 876-9290",-122.3126859428,47.6647996157,"AREPA VENEZUELAN KITCHEN","Routine Inspection/Field Review",25,"Unsatisfactory","false","RED","1600 - Proper cooling procedure",25,"PR0001390","DA8SUWKGY","IVBFGJ7SI",1
"12951","ARGOSY","LADY MARY","09/07/2022","Seating 51-150 - Risk Category I","1101 ALASKAN WAY 201","Seattle","98101","(206) 623-1445",-122.3399337292,47.6047874245,"ARGOSY","Routine Inspection/Field Review",0,"Satisfactory","false","","",0,"PR0064016","DAVB8PBLZ","",1
"13067","ARMISTICE COFFEE","ARMISTICE COFFEE","11/01/2022","Seating 13-50 - Risk Category II","2201 EASTLAKE AVE E STE A","SEATTLE","98102","(206) 708-7501",-122.32607,47.63842,"ARMISTICE COFFEE","Routine Inspection/Field Review",0,"Satisfactory","false","","",0,"PR0087696","DAWOI2FE0","",1
"13069","ARMISTICE COFFEE","ARMISTICE COFFEE","02/01/2022","Seating 51-150 - Risk Category II","6717 ROOSEVELT WAY NE # 1","SEATTLE","98115","(425) 444-0695",-122.31764028,47.67779429,"ARMISTICE COFFEE","Routine Inspection/Field Review",5,"Unsatisfactory","false","RED","2120 - Proper cold holding temperatures ( 42 degrees F to 45 degrees F)",5,"PR0088421","DANAQLTSU","IVQH8DZ0L",1
"13070","ARMISTICE COFFEE","ARMISTICE COFFEE","01/04/2022","Seating 0-12 - Risk Category I","1914 1ST AVE #1","SEATTLE","98101","(425) 985-9749",-122.34169234,47.61079705,"ARMISTICE COFFEE","Routine Inspection/Field Review",5,"Satisfactory","false","BLUE","4200 - Food-contact surfaces maintained, clean, sanitized",5,"PR0087101","DAF8SNUU6","IVMEV5TE4",1
"13085","ARMISTICE COFFEE WESTLAKE LLC","ARMISTICE COFFEE WESTLAKE LLC","08/01/2022","Seating 0-12 - Risk Category II","1601 5TH AVE STE 100","SEATTLE","98101","(425) 985-9749",-122.33716991,47.61192595,"ARMISTICE COFFEE WESTLAKE LLC","Consultation/Education - Field",0,"Complete","false","","",0,"PR0084333","DAY53LREK","",1
"13103","AROOM","AROOM","10/25/2022","Seating 13-50 - Risk Category III","3801 Stone WAY N","Seattle","98103","(206) 889-3555",-122.34303445,47.65297721,"AROOM","Routine Inspection/Field Review",0,"Satisfactory","false","","",0,"PR0090398","DAF59YRBV","",1
"13104","AROSA CAFE MADISON","AROSA CAFE MADISON","08/17/2022","Seating 0-12 - Risk Category III","3121 E MADISON ST #101","Seattle","98112","(206) 302-8077",-122.2912866521,47.6264826832,"AROSA CAFE MADISON","Routine Inspection/Field Review",15,"Unsatisfactory","false","BLUE","4200 - Food-contact surfaces maintained, clean, sanitized",5,"PR0026127","DAP3GYB2U","IVN1VMDSB",1
"13122","AROY MAK THAI LLC","AROY MAK THAI LLC","07/15/2022","Caterer - Risk Category III","4611 36TH AVE SW","SEATTLE","98126","(425) 608-9539",-122.37776845,47.56171267,"AROY MAK THAI LLC","Routine Inspection/Field Review",0,"Satisfactory","false","","",0,"PR0090289","DAGTSY0K6","",NA
"13158","ART MARBLE 21","ART MARBLE 21","08/22/2022","Seating 51-150 - Risk Category III","731 WESTLAKE AVE N ","SEATTLE","98109","(206) 223-0300",-122.3394555156,47.6264294442,"ART MARBLE 21","Routine Inspection/Field Review",10,"Unsatisfactory","false","RED","0200 - Food Worker Cards current for all food workers; new food workers trained",5,"PR0023295","DAZEAVZYG","IVHJ2AWEN",1
"13208","ART OF THE TABLE","ART OF THE TABLE","06/03/2019","Seating 13-50 - Risk Category III","3801 STONE WAY N STE A","SEATTLE","98103","(206) 282-0942",-122.34303445,47.6529772,"ART OF THE TABLE","Routine Inspection/Field Review",0,"Satisfactory","false","","",0,"PR0086673","DA0C0TAAE","",1
"13244","ARTHUR'S","ARTHUR'S","06/23/2022","Seating 51-150 - Risk Category III","2311 CALIFORNIA AVE SW ","Seattle","98116","(206) 550-0546",-122.3868071521,47.5825552808,"ARTHUR'S","Consultation/Education - Field",0,"Complete","false","","",0,"PR0003535","DA4SXZKK1","",1
"13258","ARTISAN CAFE","ARTISAN CAFE","11/19/2022","Seating 13-50 - Risk Category III","2523 5th AVE","SEATTLE","98121","(206) 764-4557",-122.3456970417,47.6173651817,"ARTISAN CAFE","Routine Inspection/Field Review",0,"Satisfactory","false","","",0,"PR0065244","DAAR0OWXB","",1
"13281","ARTLY COFFEE","ARTLY COFFEE","10/05/2022","Seating 0-12 - Risk Category I","101 STEWART ST STE 102","Seattle","98101","(617) 513-9689",-122.3408888611,47.6102917079,"ARTLY COFFEE","Routine Inspection/Field Review",5,"Satisfactory","false","BLUE","3400 - Wiping cloths properly used, stored, sanitizer concentration",5,"PR0017773","DAKSZM5M0","IVP0XKXZA",1
"13282","ARTSWEST","ARTSWEST","07/29/2022","Seating 0-12 - Risk Category I","4711 CALIFORNIA AVE SW ","Seattle","98116","(360) 348-3622",-122.3871888213,47.560710337,"ARTSWEST","Routine Inspection/Field Review",2,"Satisfactory","false","BLUE","5000 - Posting of permit; mobile establishment name...",2,"PR0054902","DAYTGI7SH","IVPX0OV5P",1
"13308","ASA MERCER MIDDLE SCHOOL","ASA MERCER MIDDLE SCHOOL","05/04/2022","School Lunch Program - Risk II","1600 S COLUMBIAN WAY ","Seattle","98108","",-122.3120831465,47.5641327291,"ASA MERCER MIDDLE SCHOOL","Routine Inspection/Field Review",10,"Unsatisfactory","false","RED","2600 - Compliance with risk control plans, variances, plan of operation; valid permit; appr procedur",10,"PR0002315","DAYXDJOVX","IV12H06AA",NA
"13357","ASADERO SINALOA","ASADERO SINALOA","06/07/2022","Seating 51-150 - Risk Category III","5405 LEARY AVE N # B","SEATTLE","98107","(206) 765-6868",-122.3827005008,47.666893071,"ASADERO SINALOA","Routine Inspection/Field Review",10,"Unsatisfactory","false","RED","1720 - Proper hot holding temperatures; between 130 degrees F to 134 degrees F",5,"PR0076903","DABEGJ2EB","IVDUKMKGF",2
"13402","ASEAN STREET","ASEAN STREET","","Seating 51-150 - Risk Category III","400 Pine ST #136","SEATTLE","98101","(425) 260-4464",-122.33721403,47.61169337,"","",NA,"","","","",0,"PR0090656","","",NA
"13418","ASIA BBQ & FAST FOOD","ASIA BBQ & FAST FOOD","08/03/2022","Seating 0-12 - Risk Category III","655A S JACKSON ST","Seattle","98104","(206) 624-2275",-122.3246907414,47.5990191164,"ASIA BBQ & FAST FOOD","Return Inspection",0,"Satisfactory","false","","",0,"PR0012906","DA2B0FU6W","",2
"13577","ASIA GINGER TERIYAKI","ASIA GINGER TERIYAKI","11/14/2022","Seating 13-50 - Risk Category III","209 2ND AVE S ","SEATTLE","98104","(206) 747-6936",-122.3319348498,47.6004888221,"ASIA GINGER TERIYAKI","Routine Inspection/Field Review",0,"Satisfactory","false","","",0,"PR0068989","DANRCAEPY","",1
"13580","ASIA GINGER TERIYAKI AND ROLL","ASIA GINGER TERIYAKI AND ROLL","09/12/2022","Seating 13-50 - Risk Category III","4119 4TH AVE S","SEATTLE","98134","(206) 434-6859",-122.3300561463,47.5665922043,"ASIA GINGER TERIYAKI AND ROLL","Consultation/Education - Field",0,"Complete","false","","",0,"PR0077423","DAWYCGA9S","",2
"13587","ASIAN EXPRESS","ASIAN EXPRESS","01/11/2022","Seating 0-12 - Risk Category III","701 5TH AVE ","Seattle","98104","(206) 237-9461",-122.3306146424,47.6045269408,"ASIAN EXPRESS","Routine Inspection/Field Review",0,"Satisfactory","false","","",0,"PR0022831","DAGURFJ7S","",1
"13637","ASIAN FOOD CENTER","ASIAN FOOD CENTER SEATTLE MEAT/SEAFOOD","07/14/2022","Meat/Sea Food - Risk Category III","13200 AURORA AVE N STE A","SEATTLE","98133","(206) 367-1229",-122.34360478,47.72503653,"ASIAN FOOD CENTER","Routine Inspection/Field Review",5,"Satisfactory","false","BLUE","4000 - Food and non-food surfaces properly used and...",5,"PR0084672","DA9KA6SXD","IVUXHQ9K7",NA
"14019","ASKATU","ASKATU","01/25/2022","Seating 0-12 - Risk Category II","2209 4TH AVE","SEATTLE","98121","(530) 574-8059",-122.3429329697,47.6145585856,"ASKATU","Routine Inspection/Field Review",0,"Satisfactory","false","","",0,"PR0078088","DAERDLLAV","",1
"14021","ASLAN BREWING COMPANY LLC","ASLAN BREWING COMPANY LLC","10/26/2022","Seating 13-50 - Risk Category I","401 N 36TH ST STE 102","SEATTLE","98103","(206) 619-6354",-122.35407,47.65192,"ASLAN BREWING COMPANY LLC","Routine Inspection/Field Review",0,"Satisfactory","false","","",0,"PR0088679","DABR6ZB9H","",1
